{"crs":{"properties":{"name":"urn:ogc:def:crs:OGC:1.3:CRS84"},"type":"name"},"features":[{"geometry":{"coordinates":[25.1788,60.2229],"type":"Point"},"properties":{"doseRate":0.103,"id":"103170","site":"Helsinki Vuosaaren Satama","timestamp":"2024-04-08T04:20:00Z"},"type":"Feature"},{"geometry":{"coordinates":[24.9322,60.1721],"type":"Point"},"properties":{"doseRate":0.122,"id":"103174","site":"Helsinki Töölö","timestamp":"2024-04-08T04:20:00Z"},"type":"Feature"},{"geometry":{"coordinates":[24.9612,60.204],"type":"Point"},"properties":{"doseRate":0.13,"id":"103177","site":"Helsinki Kumpula","timestamp":"2024-04-08T04:20:00Z"},"type":"Feature"},{"geometry":{"coordinates":[26.2241,60.4547],"type":"Point"},"properties":{"doseRate":0.209,"id":"103181","site":"Loviisa","timestamp":"2024-04-08T04:20:00Z"},"type":"Feature"},{"geometry":{"coordinates":[26.459,60.523],"type":"Point"},"properties":{"doseRate":0.181,"id":"103183","site":"Ruotsinpyhtää","timestamp":"2024-04-08T04:20:00Z"},"type":"Feature"},{"geometry":{"coordinates":[26.4444,60.2749],"type":"Point"},"properties":{"doseRate":0.114,"id":"103185","site":"Orrengrund","timestamp":"2024-04-08T04:20:00Z"},"type":"Feature"},{"geometry":{"coordinates":[25.6087,60.3918],"type":"Point"},"properties":{"doseRate":0.139,"id":"103198","site":"Porvoo","timestamp":"2024-04-08T04:20:00Z"},"type":"Feature"},{"geometry":{"coordinates":[24.493,60.9989],"type":"Point"},"properties":{"doseRate":0.112,"id":"103201","site":"Hämeenlinna","timestamp":"2024-04-08T04:20:00Z"},"type":"Feature"},{"geometry":{"coordinates":[21.4143,60.8061],"type":"Point"},"properties":{"doseRate":0.131,"id":"103216","site":"Uusikaupunki","timestamp":"2024-04-08T04:20:00Z"},"type":"Feature"},{"geometry":{"coordinates":[21.696,60.8826],"type":"Point"},"properties":{"doseRate":0.116,"id":"103217","site":"Laitila","timestamp":"2024-04-08T04:20:00Z"},"type":"Feature"},{"geometry":{"coordinates":[19.5543,60.2243],"type":"Point"},"properties":{"doseRate":0.119,"id":"103228","site":"Eckerö","timestamp":"2024-04-08T04:20:00Z"},"type":"Feature"},{"geometry":{"coordinates":[24.3508,61.6751],"type":"Point"},"properties":{"doseRate":0.105,"id":"103231","site":"Orivesi","timestamp":"2024-04-08T04:20:00Z"},"type":"Feature"},{"geometry":{"coordinates":[21.4996,61.1232],"type":"Point"},"properties":{"doseRate":0.099,"id":"103241","site":"Rauma","timestamp":"2024-04-08T04:20:00Z"},"type":"Feature"},{"geometry":{"coordinates":[21.738,61.2051],"type":"Point"},"properties":{"doseRate":0.146,"id":"103242","site":"Eurajoki","timestamp":"2024-04-08T04:20:00Z"},"type":"Feature"},{"geometry":{"coordinates":[21.8422,61.1028],"type":"Point"},"properties":{"doseRate":0.15,"id":"103243","site":"Lappi TL","timestamp":"2024-04-08T04:20:00Z"},"type":"Feature"},{"geometry":{"coordinates":[21.5828,61.2751],"type":"Point"},"properties":{"doseRate":0.148,"id":"103244","site":"Kuivalahti","timestamp":"2024-04-08T04:20:00Z"},"type":"Feature"},{"geometry":{"coordinates":[21.6224,61.3626],"type":"Point"},"properties":{"doseRate":0.128,"id":"103246","site":"Luvia","timestamp":"2024-04-08T04:20:00Z"},"type":"Feature"},{"geometry":{"coordinates":[22.1441,61.3067],"type":"Point"},"properties":{"doseRate":0.101,"id":"103247","site":"Harjavalta","timestamp":"2024-04-08T04:20:00Z"},"type":"Feature"},{"geometry":{"coordinates":[22.0205,61.4566],"type":"Point"},"properties":{"doseRate":0.106,"id":"103249","site":"Ulvila","timestamp":"2024-04-08T04:20:00Z"},"type":"Feature"},{"geometry":{"coordinates":[21.5002,61.864],"type":"Point"},"properties":{"doseRate":0.106,"id":"103253","site":"Merikarvia","timestamp":"2024-04-08T04:20:00Z"},"type":"Feature"},{"geometry":{"coordinates":[26.9175,60.4852],"type":"Point"},"properties":{"doseRate":0.199,"id":"103271","site":"Kotka","timestamp":"2024-04-08T04:20:00Z"},"type":"Feature"},{"geometry":{"coordinates":[26.7408,60.4987],"type":"Point"},"properties":{"doseRate":0.188,"id":"103274","site":"Pyhtää","timestamp":"2024-04-08T04:20:00Z"},"type":"Feature"},{"geometry":{"coordinates":[27.7027,60.5833],"type":"Point"},"properties":{"doseRate":0.159,"id":"103275","site":"Virolahti","timestamp":"2024-04-08T04:20:00Z"},"type":"Feature"},{"geometry":{"coordinates":[27.1847,60.2872],"type":"Point"},"properties":{"doseRate":0.17,"id":"103276","site":"Haapasaari","timestamp":"2024-04-08T04:20:00Z"},"type":"Feature"},{"geometry":{"coordinates":[27.5563,60.9216],"type":"Point"},"properties":{"doseRate":0.135,"id":"103282","site":"Luumäki","timestamp":"2024-04-08T04:20:00Z"},"type":"Feature"},{"geometry":{"coordinates":[28.827,61.133],"type":"Point"},"properties":{"doseRate":0.108,"id":"103286","site":"Imatra Pelkola","timestamp":"2024-04-08T04:20:00Z"},"type":"Feature"},{"geometry":{"coordinates":[23.1234,63.8446],"type":"Point"},"properties":{"doseRate":0.09,"id":"103323","site":"Kokkola","timestamp":"2024-04-08T04:20:00Z"},"type":"Feature"},{"geometry":{"coordinates":[29.074,63.5565],"type":"Point"},"properties":{"doseRate":0.064,"id":"103352","site":"Nurmes","timestamp":"2024-04-08T04:20:00Z"},"type":"Feature"},{"geometry":{"coordinates":[25.3854,65.3186],"type":"Point"},"properties":{"doseRate":0.108,"id":"103364","site":"Ii","timestamp":"2024-04-08T04:20:00Z"},"type":"Feature"},{"geometry":{"coordinates":[28.2128,64.5057],"type":"Point"},"properties":{"doseRate":0.07,"id":"103382","site":"Ristijärvi","timestamp":"2024-04-08T04:20:00Z"},"type":"Feature"},{"geometry":{"coordinates":[29.1496,66.2962],"type":"Point"},"properties":{"doseRate":0.067,"id":"103391","site":"Käylä","timestamp":"2024-04-08T04:20:00Z"},"type":"Feature"},{"geometry":{"coordinates":[28.1684,66.1101],"type":"Point"},"properties":{"doseRate":0.085,"id":"103394","site":"Posio","timestamp":"2024-04-08T04:20:00Z"},"type":"Feature"},{"geometry":{"coordinates":[28.1617,67.2926],"type":"Point"},"properties":{"doseRate":0.058,"id":"103404","site":"Savukoski","timestamp":"2024-04-08T04:20:00Z"},"type":"Feature"},{"geometry":{"coordinates":[27.0151,69.8998],"type":"Point"},"properties":{"doseRate":0.057,"id":"103421","site":"Utsjoki","timestamp":"2024-04-08T04:20:00Z"},"type":"Feature"},{"geometry":{"coordinates":[27.8682,70.0821],"type":"Point"},"properties":{"doseRate":0.056,"id":"103427","site":"Nuorgam","timestamp":"2024-04-08T04:20:00Z"},"type":"Feature"},{"geometry":{"coordinates":[27.5689,68.641],"type":"Point"},"properties":{"doseRate":0.064,"id":"104794","site":"Ivalo Rv","timestamp":"2024-04-08T04:20:00Z"},"type":"Feature"},{"geometry":{"coordinates":[27.7057,64.2021],"type":"Point"},"properties":{"doseRate":0.076,"id":"106433","site":"Kainuun prikaati","timestamp":"2024-04-08T04:20:00Z"},"type":"Feature"}],"name":"stuk_open_data_dose_rates","type":"FeatureCollection"}