{"crs":{"properties":{"name":"urn:ogc:def:crs:OGC:1.3:CRS84"},"type":"name"},"features":[{"geometry":{"coordinates":[24.4466,60.1105],"type":"Point"},"properties":{"doseRate":0.154,"id":"103175","site":"Kirkkonummi","timestamp":"2024-04-08T03:00:00Z"},"type":"Feature"},{"geometry":{"coordinates":[24.8133,60.461],"type":"Point"},"properties":{"doseRate":0.117,"id":"103180","site":"Nurmijärvi","timestamp":"2024-04-08T03:00:00Z"},"type":"Feature"},{"geometry":{"coordinates":[26.7408,60.4987],"type":"Point"},"properties":{"doseRate":0.192,"id":"103274","site":"Pyhtää","timestamp":"2024-04-08T03:00:00Z"},"type":"Feature"},{"geometry":{"coordinates":[27.8537,61.8974],"type":"Point"},"properties":{"doseRate":0.106,"id":"103292","site":"Juva","timestamp":"2024-04-08T03:00:00Z"},"type":"Feature"},{"geometry":{"coordinates":[26.645,61.9874],"type":"Point"},"properties":{"doseRate":0.087,"id":"103293","site":"Kangasniemi","timestamp":"2024-04-08T03:00:00Z"},"type":"Feature"},{"geometry":{"coordinates":[28.1848,61.5336],"type":"Point"},"properties":{"doseRate":0.094,"id":"103294","site":"Puumala","timestamp":"2024-04-08T03:00:00Z"},"type":"Feature"},{"geometry":{"coordinates":[27.2648,61.5115],"type":"Point"},"properties":{"doseRate":0.089,"id":"103297","site":"Ristiina","timestamp":"2024-04-08T03:00:00Z"},"type":"Feature"},{"geometry":{"coordinates":[28.8648,61.8679],"type":"Point"},"properties":{"doseRate":0.102,"id":"103299","site":"Savonlinna","timestamp":"2024-04-08T03:00:00Z"},"type":"Feature"},{"geometry":{"coordinates":[29.2812,61.9163],"type":"Point"},"properties":{"doseRate":0.099,"id":"103301","site":"Kerimäki","timestamp":"2024-04-08T03:00:00Z"},"type":"Feature"},{"geometry":{"coordinates":[29.2059,62.1717],"type":"Point"},"properties":{"doseRate":0.057,"id":"103302","site":"Savonranta","timestamp":"2024-04-08T03:00:00Z"},"type":"Feature"},{"geometry":{"coordinates":[28.4961,62.8043],"type":"Point"},"properties":{"doseRate":0.076,"id":"103330","site":"Tuusniemi","timestamp":"2024-04-08T03:00:00Z"},"type":"Feature"},{"geometry":{"coordinates":[28.3086,63.4862],"type":"Point"},"properties":{"doseRate":0.053,"id":"103331","site":"Rautavaara","timestamp":"2024-04-08T03:00:00Z"},"type":"Feature"},{"geometry":{"coordinates":[28.0606,63.2144],"type":"Point"},"properties":{"doseRate":0.06,"id":"103332","site":"Nilsiä","timestamp":"2024-04-08T03:00:00Z"},"type":"Feature"},{"geometry":{"coordinates":[27.8964,62.3142],"type":"Point"},"properties":{"doseRate":0.095,"id":"103337","site":"Varkaus","timestamp":"2024-04-08T03:00:00Z"},"type":"Feature"},{"geometry":{"coordinates":[30.1523,62.8006],"type":"Point"},"properties":{"doseRate":0.074,"id":"103339","site":"Eno","timestamp":"2024-04-08T03:00:00Z"},"type":"Feature"},{"geometry":{"coordinates":[29.0293,62.7247],"type":"Point"},"properties":{"doseRate":0.076,"id":"103341","site":"Outokumpu","timestamp":"2024-04-08T03:00:00Z"},"type":"Feature"},{"geometry":{"coordinates":[30.593,62.1749],"type":"Point"},"properties":{"doseRate":0.082,"id":"103344","site":"Värtsilä","timestamp":"2024-04-08T03:00:00Z"},"type":"Feature"},{"geometry":{"coordinates":[30.3355,62.2271],"type":"Point"},"properties":{"doseRate":0.095,"id":"103349","site":"Tohmajärvi","timestamp":"2024-04-08T03:00:00Z"},"type":"Feature"},{"geometry":{"coordinates":[30.0073,63.3217],"type":"Point"},"properties":{"doseRate":0.052,"id":"103353","site":"Lieksa","timestamp":"2024-04-08T03:00:00Z"},"type":"Feature"},{"geometry":{"coordinates":[29.2561,63.2401],"type":"Point"},"properties":{"doseRate":0.092,"id":"103354","site":"Juuka","timestamp":"2024-04-08T03:00:00Z"},"type":"Feature"},{"geometry":{"coordinates":[28.8175,63.6784],"type":"Point"},"properties":{"doseRate":0.101,"id":"103355","site":"Valtimo","timestamp":"2024-04-08T03:00:00Z"},"type":"Feature"},{"geometry":{"coordinates":[27.1942,63.5713],"type":"Point"},"properties":{"doseRate":0.115,"id":"103356","site":"Iisalmi","timestamp":"2024-04-08T03:00:00Z"},"type":"Feature"},{"geometry":{"coordinates":[26.5963,63.6472],"type":"Point"},"properties":{"doseRate":0.06,"id":"103357","site":"Kiuruvesi","timestamp":"2024-04-08T03:00:00Z"},"type":"Feature"},{"geometry":{"coordinates":[26.771,63.2333],"type":"Point"},"properties":{"doseRate":0.071,"id":"103359","site":"Pielavesi","timestamp":"2024-04-08T03:00:00Z"},"type":"Feature"},{"geometry":{"coordinates":[27.0121,63.7497],"type":"Point"},"properties":{"doseRate":0.089,"id":"103360","site":"Vieremä","timestamp":"2024-04-08T03:00:00Z"},"type":"Feature"},{"geometry":{"coordinates":[26.8376,64.5585],"type":"Point"},"properties":{"doseRate":0.125,"id":"103363","site":"Vaala","timestamp":"2024-04-08T03:00:00Z"},"type":"Feature"},{"geometry":{"coordinates":[25.4113,64.8074],"type":"Point"},"properties":{"doseRate":0.072,"id":"103368","site":"Liminka","timestamp":"2024-04-08T03:00:00Z"},"type":"Feature"},{"geometry":{"coordinates":[25.475,65.016],"type":"Point"},"properties":{"doseRate":0.077,"id":"103369","site":"Oulu","timestamp":"2024-04-08T03:00:00Z"},"type":"Feature"},{"geometry":{"coordinates":[24.4895,64.6736],"type":"Point"},"properties":{"doseRate":0.098,"id":"103370","site":"Raahe","timestamp":"2024-04-08T03:00:00Z"},"type":"Feature"},{"geometry":{"coordinates":[25.3649,64.1455],"type":"Point"},"properties":{"doseRate":0.103,"id":"103374","site":"Haapavesi","timestamp":"2024-04-08T03:00:00Z"},"type":"Feature"},{"geometry":{"coordinates":[26.2881,64.3528],"type":"Point"},"properties":{"doseRate":0.092,"id":"103378","site":"Kestilä","timestamp":"2024-04-08T03:00:00Z"},"type":"Feature"},{"geometry":{"coordinates":[28.9173,64.8818],"type":"Point"},"properties":{"doseRate":0.065,"id":"103384","site":"Suomussalmi","timestamp":"2024-04-08T03:00:00Z"},"type":"Feature"},{"geometry":{"coordinates":[27.6747,64.868],"type":"Point"},"properties":{"doseRate":0.111,"id":"103386","site":"Puolanka","timestamp":"2024-04-08T03:00:00Z"},"type":"Feature"},{"geometry":{"coordinates":[29.9663,64.5418],"type":"Point"},"properties":{"doseRate":0.058,"id":"103387","site":"Vartius","timestamp":"2024-04-08T03:00:00Z"},"type":"Feature"},{"geometry":{"coordinates":[29.1721,65.9684],"type":"Point"},"properties":{"doseRate":0.076,"id":"103388","site":"Kuusamo","timestamp":"2024-04-08T03:00:00Z"},"type":"Feature"},{"geometry":{"coordinates":[27.7159,65.6421],"type":"Point"},"properties":{"doseRate":0.053,"id":"103390","site":"Syöte","timestamp":"2024-04-08T03:00:00Z"},"type":"Feature"},{"geometry":{"coordinates":[26.8838,66.3406],"type":"Point"},"properties":{"doseRate":0.06,"id":"103397","site":"Pekkala","timestamp":"2024-04-08T03:00:00Z"},"type":"Feature"},{"geometry":{"coordinates":[24.8194,66.094],"type":"Point"},"properties":{"doseRate":0.052,"id":"103398","site":"Tervola","timestamp":"2024-04-08T03:00:00Z"},"type":"Feature"},{"geometry":{"coordinates":[24.1747,65.8472],"type":"Point"},"properties":{"doseRate":0.07,"id":"103399","site":"Tornio","timestamp":"2024-04-08T03:00:00Z"},"type":"Feature"},{"geometry":{"coordinates":[24.589,65.7425],"type":"Point"},"properties":{"doseRate":0.056,"id":"103400","site":"Kemi","timestamp":"2024-04-08T03:00:00Z"},"type":"Feature"},{"geometry":{"coordinates":[28.6727,66.8338],"type":"Point"},"properties":{"doseRate":0.066,"id":"103402","site":"Salla","timestamp":"2024-04-08T03:00:00Z"},"type":"Feature"},{"geometry":{"coordinates":[27.5157,67.1074],"type":"Point"},"properties":{"doseRate":0.06,"id":"103403","site":"Pelkosenniemi","timestamp":"2024-04-08T03:00:00Z"},"type":"Feature"},{"geometry":{"coordinates":[24.8994,67.6595],"type":"Point"},"properties":{"doseRate":0.056,"id":"103409","site":"Kittilä","timestamp":"2024-04-08T03:00:00Z"},"type":"Feature"},{"geometry":{"coordinates":[23.9629,66.7728],"type":"Point"},"properties":{"doseRate":0.07,"id":"103410","site":"Pello","timestamp":"2024-04-08T03:00:00Z"},"type":"Feature"},{"geometry":{"coordinates":[22.509,68.4425],"type":"Point"},"properties":{"doseRate":0.074,"id":"103415","site":"Karesuvanto","timestamp":"2024-04-08T03:00:00Z"},"type":"Feature"},{"geometry":{"coordinates":[27.0151,69.8998],"type":"Point"},"properties":{"doseRate":0.06,"id":"103421","site":"Utsjoki","timestamp":"2024-04-08T03:00:00Z"},"type":"Feature"},{"geometry":{"coordinates":[28.3179,68.4717],"type":"Point"},"properties":{"doseRate":0.071,"id":"103425","site":"Raja-Jooseppi","timestamp":"2024-04-08T03:00:00Z"},"type":"Feature"},{"geometry":{"coordinates":[26.2027,68.4678],"type":"Point"},"properties":{"doseRate":0.07,"id":"103426","site":"Litmurivaara","timestamp":"2024-04-08T03:00:00Z"},"type":"Feature"},{"geometry":{"coordinates":[27.8682,70.0821],"type":"Point"},"properties":{"doseRate":0.051,"id":"103427","site":"Nuorgam","timestamp":"2024-04-08T03:00:00Z"},"type":"Feature"},{"geometry":{"coordinates":[27.7057,64.2021],"type":"Point"},"properties":{"doseRate":0.071,"id":"106433","site":"Kainuun prikaati","timestamp":"2024-04-08T03:00:00Z"},"type":"Feature"}],"name":"stuk_open_data_dose_rates","type":"FeatureCollection"}