{"crs":{"properties":{"name":"urn:ogc:def:crs:OGC:1.3:CRS84"},"type":"name"},"features":[{"geometry":{"coordinates":[25.1788,60.2229],"type":"Point"},"properties":{"doseRate":0.109,"id":"103170","site":"Helsinki Vuosaaren Satama","timestamp":"2024-03-31T02:20:00Z"},"type":"Feature"},{"geometry":{"coordinates":[24.9322,60.1721],"type":"Point"},"properties":{"doseRate":0.125,"id":"103174","site":"Helsinki Töölö","timestamp":"2024-03-31T02:20:00Z"},"type":"Feature"},{"geometry":{"coordinates":[24.4466,60.1105],"type":"Point"},"properties":{"doseRate":0.15,"id":"103175","site":"Kirkkonummi","timestamp":"2024-03-31T02:20:00Z"},"type":"Feature"},{"geometry":{"coordinates":[24.9612,60.204],"type":"Point"},"properties":{"doseRate":0.136,"id":"103177","site":"Helsinki Kumpula","timestamp":"2024-03-31T02:20:00Z"},"type":"Feature"},{"geometry":{"coordinates":[26.2241,60.4547],"type":"Point"},"properties":{"doseRate":0.205,"id":"103181","site":"Loviisa","timestamp":"2024-03-31T02:20:00Z"},"type":"Feature"},{"geometry":{"coordinates":[25.9372,60.496],"type":"Point"},"properties":{"doseRate":0.184,"id":"103182","site":"Pernaja","timestamp":"2024-03-31T02:20:00Z"},"type":"Feature"},{"geometry":{"coordinates":[26.459,60.523],"type":"Point"},"properties":{"doseRate":0.179,"id":"103183","site":"Ruotsinpyhtää","timestamp":"2024-03-31T02:20:00Z"},"type":"Feature"},{"geometry":{"coordinates":[26.2034,60.627],"type":"Point"},"properties":{"doseRate":0.141,"id":"103184","site":"Lapinjärvi","timestamp":"2024-03-31T02:20:00Z"},"type":"Feature"},{"geometry":{"coordinates":[26.4444,60.2749],"type":"Point"},"properties":{"doseRate":0.114,"id":"103185","site":"Orrengrund","timestamp":"2024-03-31T02:20:00Z"},"type":"Feature"},{"geometry":{"coordinates":[25.6087,60.3918],"type":"Point"},"properties":{"doseRate":0.14,"id":"103198","site":"Porvoo","timestamp":"2024-03-31T02:20:00Z"},"type":"Feature"},{"geometry":{"coordinates":[21.4143,60.8061],"type":"Point"},"properties":{"doseRate":0.119,"id":"103216","site":"Uusikaupunki","timestamp":"2024-03-31T02:20:00Z"},"type":"Feature"},{"geometry":{"coordinates":[21.696,60.8826],"type":"Point"},"properties":{"doseRate":0.121,"id":"103217","site":"Laitila","timestamp":"2024-03-31T02:20:00Z"},"type":"Feature"},{"geometry":{"coordinates":[19.5543,60.2243],"type":"Point"},"properties":{"doseRate":0.119,"id":"103228","site":"Eckerö","timestamp":"2024-03-31T02:20:00Z"},"type":"Feature"},{"geometry":{"coordinates":[21.4996,61.1232],"type":"Point"},"properties":{"doseRate":0.1,"id":"103241","site":"Rauma","timestamp":"2024-03-31T02:20:00Z"},"type":"Feature"},{"geometry":{"coordinates":[21.738,61.2051],"type":"Point"},"properties":{"doseRate":0.152,"id":"103242","site":"Eurajoki","timestamp":"2024-03-31T02:20:00Z"},"type":"Feature"},{"geometry":{"coordinates":[21.8422,61.1028],"type":"Point"},"properties":{"doseRate":0.138,"id":"103243","site":"Lappi TL","timestamp":"2024-03-31T02:20:00Z"},"type":"Feature"},{"geometry":{"coordinates":[21.5828,61.2751],"type":"Point"},"properties":{"doseRate":0.149,"id":"103244","site":"Kuivalahti","timestamp":"2024-03-31T02:20:00Z"},"type":"Feature"},{"geometry":{"coordinates":[21.6224,61.3626],"type":"Point"},"properties":{"doseRate":0.133,"id":"103246","site":"Luvia","timestamp":"2024-03-31T02:20:00Z"},"type":"Feature"},{"geometry":{"coordinates":[22.1441,61.3067],"type":"Point"},"properties":{"doseRate":0.099,"id":"103247","site":"Harjavalta","timestamp":"2024-03-31T02:20:00Z"},"type":"Feature"},{"geometry":{"coordinates":[22.0205,61.4566],"type":"Point"},"properties":{"doseRate":0.1,"id":"103249","site":"Ulvila","timestamp":"2024-03-31T02:20:00Z"},"type":"Feature"},{"geometry":{"coordinates":[21.5002,61.864],"type":"Point"},"properties":{"doseRate":0.108,"id":"103253","site":"Merikarvia","timestamp":"2024-03-31T02:20:00Z"},"type":"Feature"},{"geometry":{"coordinates":[26.9175,60.4852],"type":"Point"},"properties":{"doseRate":0.198,"id":"103271","site":"Kotka","timestamp":"2024-03-31T02:20:00Z"},"type":"Feature"},{"geometry":{"coordinates":[26.7408,60.4987],"type":"Point"},"properties":{"doseRate":0.192,"id":"103274","site":"Pyhtää","timestamp":"2024-03-31T02:20:00Z"},"type":"Feature"},{"geometry":{"coordinates":[27.1847,60.2872],"type":"Point"},"properties":{"doseRate":0.169,"id":"103276","site":"Haapasaari","timestamp":"2024-03-31T02:20:00Z"},"type":"Feature"},{"geometry":{"coordinates":[28.827,61.133],"type":"Point"},"properties":{"doseRate":0.111,"id":"103286","site":"Imatra Pelkola","timestamp":"2024-03-31T02:20:00Z"},"type":"Feature"},{"geometry":{"coordinates":[23.1234,63.8446],"type":"Point"},"properties":{"doseRate":0.089,"id":"103323","site":"Kokkola","timestamp":"2024-03-31T02:20:00Z"},"type":"Feature"},{"geometry":{"coordinates":[25.7513,66.4972],"type":"Point"},"properties":{"doseRate":0.069,"id":"103393","site":"Rovaniemi","timestamp":"2024-03-31T02:20:00Z"},"type":"Feature"},{"geometry":{"coordinates":[29.6103,67.7484],"type":"Point"},"properties":{"doseRate":0.055,"id":"103406","site":"Värriö","timestamp":"2024-03-31T02:20:00Z"},"type":"Feature"},{"geometry":{"coordinates":[27.5689,68.641],"type":"Point"},"properties":{"doseRate":0.06,"id":"104794","site":"Ivalo Rv","timestamp":"2024-03-31T02:20:00Z"},"type":"Feature"},{"geometry":{"coordinates":[26.6297,67.367],"type":"Point"},"properties":{"doseRate":0.069,"id":"104795","site":"Sodankylä IL","timestamp":"2024-03-31T02:20:00Z"},"type":"Feature"},{"geometry":{"coordinates":[27.7057,64.2021],"type":"Point"},"properties":{"doseRate":0.067,"id":"106433","site":"Kainuun prikaati","timestamp":"2024-03-31T02:20:00Z"},"type":"Feature"}],"name":"stuk_open_data_dose_rates","type":"FeatureCollection"}