{"crs":{"properties":{"name":"urn:ogc:def:crs:OGC:1.3:CRS84"},"type":"name"},"features":[{"geometry":{"coordinates":[24.9502,60.1846],"type":"Point"},"properties":{"doseRate":0.15,"id":"103169","site":"Kallio","timestamp":"2024-04-20T15:40:00Z"},"type":"Feature"},{"geometry":{"coordinates":[25.1788,60.2229],"type":"Point"},"properties":{"doseRate":0.113,"id":"103170","site":"Helsinki Vuosaaren Satama","timestamp":"2024-04-20T15:40:00Z"},"type":"Feature"},{"geometry":{"coordinates":[24.9903,60.1464],"type":"Point"},"properties":{"doseRate":0.146,"id":"103171","site":"Helsinki Suomenlinna","timestamp":"2024-04-20T15:40:00Z"},"type":"Feature"},{"geometry":{"coordinates":[24.9322,60.1721],"type":"Point"},"properties":{"doseRate":0.123,"id":"103174","site":"Helsinki Töölö","timestamp":"2024-04-20T15:40:00Z"},"type":"Feature"},{"geometry":{"coordinates":[24.4466,60.1105],"type":"Point"},"properties":{"doseRate":0.166,"id":"103175","site":"Kirkkonummi","timestamp":"2024-04-20T15:40:00Z"},"type":"Feature"},{"geometry":{"coordinates":[25.2645,60.3791],"type":"Point"},"properties":{"doseRate":0.139,"id":"103176","site":"Sipoo","timestamp":"2024-04-20T15:40:00Z"},"type":"Feature"},{"geometry":{"coordinates":[24.9612,60.204],"type":"Point"},"properties":{"doseRate":0.134,"id":"103177","site":"Helsinki Kumpula","timestamp":"2024-04-20T15:40:00Z"},"type":"Feature"},{"geometry":{"coordinates":[25.1121,60.4069],"type":"Point"},"properties":{"doseRate":0.107,"id":"103179","site":"Kerava","timestamp":"2024-04-20T15:40:00Z"},"type":"Feature"},{"geometry":{"coordinates":[24.8133,60.461],"type":"Point"},"properties":{"doseRate":0.118,"id":"103180","site":"Nurmijärvi","timestamp":"2024-04-20T15:40:00Z"},"type":"Feature"},{"geometry":{"coordinates":[26.459,60.523],"type":"Point"},"properties":{"doseRate":0.194,"id":"103183","site":"Ruotsinpyhtää","timestamp":"2024-04-20T15:40:00Z"},"type":"Feature"},{"geometry":{"coordinates":[26.4444,60.2749],"type":"Point"},"properties":{"doseRate":0.118,"id":"103185","site":"Orrengrund","timestamp":"2024-04-20T15:40:00Z"},"type":"Feature"},{"geometry":{"coordinates":[25.6917,61.5066],"type":"Point"},"properties":{"doseRate":0.098,"id":"103187","site":"Sysmä","timestamp":"2024-04-20T15:40:00Z"},"type":"Feature"},{"geometry":{"coordinates":[23.4663,59.9819],"type":"Point"},"properties":{"doseRate":0.106,"id":"103188","site":"Tammisaari","timestamp":"2024-04-20T15:40:00Z"},"type":"Feature"},{"geometry":{"coordinates":[22.994,59.8364],"type":"Point"},"properties":{"doseRate":0.128,"id":"103189","site":"Hanko","timestamp":"2024-04-20T15:40:00Z"},"type":"Feature"},{"geometry":{"coordinates":[23.5721,59.822],"type":"Point"},"properties":{"doseRate":0.132,"id":"103192","site":"Jussarö","timestamp":"2024-04-20T15:40:00Z"},"type":"Feature"},{"geometry":{"coordinates":[24.0237,60.2233],"type":"Point"},"properties":{"doseRate":0.099,"id":"103193","site":"Lohja","timestamp":"2024-04-20T15:40:00Z"},"type":"Feature"},{"geometry":{"coordinates":[24.7449,60.7482],"type":"Point"},"properties":{"doseRate":0.092,"id":"103197","site":"Riihimäki","timestamp":"2024-04-20T15:40:00Z"},"type":"Feature"},{"geometry":{"coordinates":[25.6087,60.3918],"type":"Point"},"properties":{"doseRate":0.13,"id":"103198","site":"Porvoo","timestamp":"2024-04-20T15:40:00Z"},"type":"Feature"},{"geometry":{"coordinates":[24.493,60.9989],"type":"Point"},"properties":{"doseRate":0.113,"id":"103201","site":"Hämeenlinna","timestamp":"2024-04-20T15:40:00Z"},"type":"Feature"},{"geometry":{"coordinates":[25.0121,61.0743],"type":"Point"},"properties":{"doseRate":0.107,"id":"103202","site":"Lammi","timestamp":"2024-04-20T15:40:00Z"},"type":"Feature"},{"geometry":{"coordinates":[25.261,60.8659],"type":"Point"},"properties":{"doseRate":0.147,"id":"103207","site":"Kärkölä","timestamp":"2024-04-20T15:40:00Z"},"type":"Feature"},{"geometry":{"coordinates":[25.7208,60.7981],"type":"Point"},"properties":{"doseRate":0.13,"id":"103208","site":"Orimattila","timestamp":"2024-04-20T15:40:00Z"},"type":"Feature"},{"geometry":{"coordinates":[26.0534,60.7455],"type":"Point"},"properties":{"doseRate":0.135,"id":"103209","site":"Artjärvi","timestamp":"2024-04-20T15:40:00Z"},"type":"Feature"},{"geometry":{"coordinates":[25.2699,61.3487],"type":"Point"},"properties":{"doseRate":0.127,"id":"103210","site":"Padasjoki","timestamp":"2024-04-20T15:40:00Z"},"type":"Feature"},{"geometry":{"coordinates":[25.9712,60.9331],"type":"Point"},"properties":{"doseRate":0.148,"id":"103211","site":"Nastola","timestamp":"2024-04-20T15:40:00Z"},"type":"Feature"},{"geometry":{"coordinates":[22.2533,60.4469],"type":"Point"},"properties":{"doseRate":0.156,"id":"103212","site":"Turku","timestamp":"2024-04-20T15:40:00Z"},"type":"Feature"},{"geometry":{"coordinates":[22.2658,60.4437],"type":"Point"},"properties":{"doseRate":0.114,"id":"103213","site":"Turku Vähäheikkilä","timestamp":"2024-04-20T15:40:00Z"},"type":"Feature"},{"geometry":{"coordinates":[21.4143,60.8061],"type":"Point"},"properties":{"doseRate":0.131,"id":"103216","site":"Uusikaupunki","timestamp":"2024-04-20T15:40:00Z"},"type":"Feature"},{"geometry":{"coordinates":[21.696,60.8826],"type":"Point"},"properties":{"doseRate":0.12,"id":"103217","site":"Laitila","timestamp":"2024-04-20T15:40:00Z"},"type":"Feature"},{"geometry":{"coordinates":[23.1301,60.3964],"type":"Point"},"properties":{"doseRate":0.116,"id":"103220","site":"Salo","timestamp":"2024-04-20T15:40:00Z"},"type":"Feature"},{"geometry":{"coordinates":[22.2969,60.311],"type":"Point"},"properties":{"doseRate":0.108,"id":"103221","site":"Parainen","timestamp":"2024-04-20T15:40:00Z"},"type":"Feature"},{"geometry":{"coordinates":[21.3609,60.2212],"type":"Point"},"properties":{"doseRate":0.141,"id":"103223","site":"Houtskari","timestamp":"2024-04-20T15:40:00Z"},"type":"Feature"},{"geometry":{"coordinates":[21.5634,60.1609],"type":"Point"},"properties":{"doseRate":0.129,"id":"103225","site":"Korppoo","timestamp":"2024-04-20T15:40:00Z"},"type":"Feature"},{"geometry":{"coordinates":[19.9277,60.1062],"type":"Point"},"properties":{"doseRate":0.16,"id":"103226","site":"Maarianhamina","timestamp":"2024-04-20T15:40:00Z"},"type":"Feature"},{"geometry":{"coordinates":[19.5543,60.2243],"type":"Point"},"properties":{"doseRate":0.125,"id":"103228","site":"Eckerö","timestamp":"2024-04-20T15:40:00Z"},"type":"Feature"},{"geometry":{"coordinates":[23.789,61.5104],"type":"Point"},"properties":{"doseRate":0.135,"id":"103229","site":"Tampere","timestamp":"2024-04-20T15:40:00Z"},"type":"Feature"},{"geometry":{"coordinates":[24.3508,61.6751],"type":"Point"},"properties":{"doseRate":0.116,"id":"103231","site":"Orivesi","timestamp":"2024-04-20T15:40:00Z"},"type":"Feature"},{"geometry":{"coordinates":[23.0019,61.9949],"type":"Point"},"properties":{"doseRate":0.12,"id":"103233","site":"Parkano","timestamp":"2024-04-20T15:40:00Z"},"type":"Feature"},{"geometry":{"coordinates":[24.0623,61.9788],"type":"Point"},"properties":{"doseRate":0.089,"id":"103236","site":"Ruovesi","timestamp":"2024-04-20T15:40:00Z"},"type":"Feature"},{"geometry":{"coordinates":[23.7289,61.8788],"type":"Point"},"properties":{"doseRate":0.124,"id":"103237","site":"Kuru","timestamp":"2024-04-20T15:40:00Z"},"type":"Feature"},{"geometry":{"coordinates":[23.7761,62.2381],"type":"Point"},"properties":{"doseRate":0.108,"id":"103238","site":"Virrat","timestamp":"2024-04-20T15:40:00Z"},"type":"Feature"},{"geometry":{"coordinates":[23.9906,61.26],"type":"Point"},"properties":{"doseRate":0.125,"id":"103239","site":"Valkeakoski","timestamp":"2024-04-20T15:40:00Z"},"type":"Feature"},{"geometry":{"coordinates":[23.618,61.0694],"type":"Point"},"properties":{"doseRate":0.12,"id":"103240","site":"Urjala","timestamp":"2024-04-20T15:40:00Z"},"type":"Feature"},{"geometry":{"coordinates":[21.4996,61.1232],"type":"Point"},"properties":{"doseRate":0.092,"id":"103241","site":"Rauma","timestamp":"2024-04-20T15:40:00Z"},"type":"Feature"},{"geometry":{"coordinates":[21.738,61.2051],"type":"Point"},"properties":{"doseRate":0.152,"id":"103242","site":"Eurajoki","timestamp":"2024-04-20T15:40:00Z"},"type":"Feature"},{"geometry":{"coordinates":[21.8422,61.1028],"type":"Point"},"properties":{"doseRate":0.15,"id":"103243","site":"Lappi TL","timestamp":"2024-04-20T15:40:00Z"},"type":"Feature"},{"geometry":{"coordinates":[21.5828,61.2751],"type":"Point"},"properties":{"doseRate":0.15,"id":"103244","site":"Kuivalahti","timestamp":"2024-04-20T15:40:00Z"},"type":"Feature"},{"geometry":{"coordinates":[21.6224,61.3626],"type":"Point"},"properties":{"doseRate":0.126,"id":"103246","site":"Luvia","timestamp":"2024-04-20T15:40:00Z"},"type":"Feature"},{"geometry":{"coordinates":[22.1441,61.3067],"type":"Point"},"properties":{"doseRate":0.107,"id":"103247","site":"Harjavalta","timestamp":"2024-04-20T15:40:00Z"},"type":"Feature"},{"geometry":{"coordinates":[22.7023,61.2017],"type":"Point"},"properties":{"doseRate":0.132,"id":"103248","site":"Huittinen","timestamp":"2024-04-20T15:40:00Z"},"type":"Feature"},{"geometry":{"coordinates":[22.0205,61.4566],"type":"Point"},"properties":{"doseRate":0.115,"id":"103249","site":"Ulvila","timestamp":"2024-04-20T15:40:00Z"},"type":"Feature"},{"geometry":{"coordinates":[22.0063,61.6934],"type":"Point"},"properties":{"doseRate":0.116,"id":"103250","site":"Pomarkku","timestamp":"2024-04-20T15:40:00Z"},"type":"Feature"},{"geometry":{"coordinates":[22.2744,61.9912],"type":"Point"},"properties":{"doseRate":0.114,"id":"103251","site":"Honkajoki","timestamp":"2024-04-20T15:40:00Z"},"type":"Feature"},{"geometry":{"coordinates":[21.5002,61.864],"type":"Point"},"properties":{"doseRate":0.112,"id":"103253","site":"Merikarvia","timestamp":"2024-04-20T15:40:00Z"},"type":"Feature"},{"geometry":{"coordinates":[26.4345,62.3913],"type":"Point"},"properties":{"doseRate":0.087,"id":"103256","site":"Hankasalmi","timestamp":"2024-04-20T15:40:00Z"},"type":"Feature"},{"geometry":{"coordinates":[25.1789,61.8622],"type":"Point"},"properties":{"doseRate":0.106,"id":"103258","site":"Jämsä","timestamp":"2024-04-20T15:40:00Z"},"type":"Feature"},{"geometry":{"coordinates":[24.7954,62.8729],"type":"Point"},"properties":{"doseRate":0.106,"id":"103261","site":"Karstula","timestamp":"2024-04-20T15:40:00Z"},"type":"Feature"},{"geometry":{"coordinates":[26.3586,60.889],"type":"Point"},"properties":{"doseRate":0.168,"id":"103267","site":"Iitti","timestamp":"2024-04-20T15:40:00Z"},"type":"Feature"},{"geometry":{"coordinates":[26.8443,60.6966],"type":"Point"},"properties":{"doseRate":0.162,"id":"103268","site":"Anjalankoski","timestamp":"2024-04-20T15:40:00Z"},"type":"Feature"},{"geometry":{"coordinates":[26.9175,60.4852],"type":"Point"},"properties":{"doseRate":0.203,"id":"103271","site":"Kotka","timestamp":"2024-04-20T15:40:00Z"},"type":"Feature"},{"geometry":{"coordinates":[27.1199,60.5642],"type":"Point"},"properties":{"doseRate":0.229,"id":"103272","site":"Hamina","timestamp":"2024-04-20T15:40:00Z"},"type":"Feature"},{"geometry":{"coordinates":[26.7408,60.4987],"type":"Point"},"properties":{"doseRate":0.19,"id":"103274","site":"Pyhtää","timestamp":"2024-04-20T15:40:00Z"},"type":"Feature"},{"geometry":{"coordinates":[27.1847,60.2872],"type":"Point"},"properties":{"doseRate":0.173,"id":"103276","site":"Haapasaari","timestamp":"2024-04-20T15:40:00Z"},"type":"Feature"},{"geometry":{"coordinates":[27.5563,60.9216],"type":"Point"},"properties":{"doseRate":0.151,"id":"103282","site":"Luumäki","timestamp":"2024-04-20T15:40:00Z"},"type":"Feature"},{"geometry":{"coordinates":[28.827,61.133],"type":"Point"},"properties":{"doseRate":0.11,"id":"103286","site":"Imatra Pelkola","timestamp":"2024-04-20T15:40:00Z"},"type":"Feature"},{"geometry":{"coordinates":[28.8027,61.2128],"type":"Point"},"properties":{"doseRate":0.147,"id":"103287","site":"Imatra","timestamp":"2024-04-20T15:40:00Z"},"type":"Feature"},{"geometry":{"coordinates":[29.3619,61.4351],"type":"Point"},"properties":{"doseRate":0.113,"id":"103288","site":"Rautjärvi","timestamp":"2024-04-20T15:40:00Z"},"type":"Feature"},{"geometry":{"coordinates":[27.8537,61.8974],"type":"Point"},"properties":{"doseRate":0.107,"id":"103292","site":"Juva","timestamp":"2024-04-20T15:40:00Z"},"type":"Feature"},{"geometry":{"coordinates":[26.645,61.9874],"type":"Point"},"properties":{"doseRate":0.098,"id":"103293","site":"Kangasniemi","timestamp":"2024-04-20T15:40:00Z"},"type":"Feature"},{"geometry":{"coordinates":[28.1848,61.5336],"type":"Point"},"properties":{"doseRate":0.105,"id":"103294","site":"Puumala","timestamp":"2024-04-20T15:40:00Z"},"type":"Feature"},{"geometry":{"coordinates":[27.2078,62.0191],"type":"Point"},"properties":{"doseRate":0.088,"id":"103295","site":"Haukivuori","timestamp":"2024-04-20T15:40:00Z"},"type":"Feature"},{"geometry":{"coordinates":[26.4789,61.503],"type":"Point"},"properties":{"doseRate":0.118,"id":"103296","site":"Pertunmaa","timestamp":"2024-04-20T15:40:00Z"},"type":"Feature"},{"geometry":{"coordinates":[27.2648,61.5115],"type":"Point"},"properties":{"doseRate":0.092,"id":"103297","site":"Ristiina","timestamp":"2024-04-20T15:40:00Z"},"type":"Feature"},{"geometry":{"coordinates":[28.8648,61.8679],"type":"Point"},"properties":{"doseRate":0.098,"id":"103299","site":"Savonlinna","timestamp":"2024-04-20T15:40:00Z"},"type":"Feature"},{"geometry":{"coordinates":[29.3854,61.7605],"type":"Point"},"properties":{"doseRate":0.11,"id":"103300","site":"Punkaharju","timestamp":"2024-04-20T15:40:00Z"},"type":"Feature"},{"geometry":{"coordinates":[29.2812,61.9163],"type":"Point"},"properties":{"doseRate":0.096,"id":"103301","site":"Kerimäki","timestamp":"2024-04-20T15:40:00Z"},"type":"Feature"},{"geometry":{"coordinates":[29.2059,62.1717],"type":"Point"},"properties":{"doseRate":0.075,"id":"103302","site":"Savonranta","timestamp":"2024-04-20T15:40:00Z"},"type":"Feature"},{"geometry":{"coordinates":[28.3058,62.0612],"type":"Point"},"properties":{"doseRate":0.075,"id":"103304","site":"Rantasalmi","timestamp":"2024-04-20T15:40:00Z"},"type":"Feature"},{"geometry":{"coordinates":[27.818,62.1844],"type":"Point"},"properties":{"doseRate":0.097,"id":"103306","site":"Joroinen","timestamp":"2024-04-20T15:40:00Z"},"type":"Feature"},{"geometry":{"coordinates":[28.6323,62.4273],"type":"Point"},"properties":{"doseRate":0.1,"id":"103307","site":"Heinävesi","timestamp":"2024-04-20T15:40:00Z"},"type":"Feature"},{"geometry":{"coordinates":[21.3698,62.2789],"type":"Point"},"properties":{"doseRate":0.115,"id":"103312","site":"Kristiinankaupunki","timestamp":"2024-04-20T15:40:00Z"},"type":"Feature"},{"geometry":{"coordinates":[22.1755,62.4262],"type":"Point"},"properties":{"doseRate":0.107,"id":"103313","site":"Kauhajoki","timestamp":"2024-04-20T15:40:00Z"},"type":"Feature"},{"geometry":{"coordinates":[21.9671,62.1116],"type":"Point"},"properties":{"doseRate":0.105,"id":"103314","site":"Isojoki","timestamp":"2024-04-20T15:40:00Z"},"type":"Feature"},{"geometry":{"coordinates":[22.8926,62.7755],"type":"Point"},"properties":{"doseRate":0.097,"id":"103315","site":"Seinäjoki","timestamp":"2024-04-20T15:40:00Z"},"type":"Feature"},{"geometry":{"coordinates":[23.0187,62.9745],"type":"Point"},"properties":{"doseRate":0.111,"id":"103316","site":"Lapua","timestamp":"2024-04-20T15:40:00Z"},"type":"Feature"},{"geometry":{"coordinates":[22.3926,62.6185],"type":"Point"},"properties":{"doseRate":0.1,"id":"103318","site":"Kurikka","timestamp":"2024-04-20T15:40:00Z"},"type":"Feature"},{"geometry":{"coordinates":[24.0992,62.5529],"type":"Point"},"properties":{"doseRate":0.09,"id":"103320","site":"Ähtäri","timestamp":"2024-04-20T15:40:00Z"},"type":"Feature"},{"geometry":{"coordinates":[23.8173,62.9999],"type":"Point"},"properties":{"doseRate":0.079,"id":"103321","site":"Alajärvi","timestamp":"2024-04-20T15:40:00Z"},"type":"Feature"},{"geometry":{"coordinates":[23.1234,63.8446],"type":"Point"},"properties":{"doseRate":0.092,"id":"103323","site":"Kokkola","timestamp":"2024-04-20T15:40:00Z"},"type":"Feature"},{"geometry":{"coordinates":[23.7132,63.5533],"type":"Point"},"properties":{"doseRate":0.118,"id":"103324","site":"Kaustinen","timestamp":"2024-04-20T15:40:00Z"},"type":"Feature"},{"geometry":{"coordinates":[27.1343,62.6279],"type":"Point"},"properties":{"doseRate":0.102,"id":"103328","site":"Suonenjoki","timestamp":"2024-04-20T15:40:00Z"},"type":"Feature"},{"geometry":{"coordinates":[26.9686,62.8969],"type":"Point"},"properties":{"doseRate":0.086,"id":"103329","site":"Karttula","timestamp":"2024-04-20T15:40:00Z"},"type":"Feature"},{"geometry":{"coordinates":[28.4961,62.8043],"type":"Point"},"properties":{"doseRate":0.092,"id":"103330","site":"Tuusniemi","timestamp":"2024-04-20T15:40:00Z"},"type":"Feature"},{"geometry":{"coordinates":[28.3086,63.4862],"type":"Point"},"properties":{"doseRate":0.065,"id":"103331","site":"Rautavaara","timestamp":"2024-04-20T15:40:00Z"},"type":"Feature"},{"geometry":{"coordinates":[28.0606,63.2144],"type":"Point"},"properties":{"doseRate":0.072,"id":"103332","site":"Nilsiä","timestamp":"2024-04-20T15:40:00Z"},"type":"Feature"},{"geometry":{"coordinates":[28.3231,63.0643],"type":"Point"},"properties":{"doseRate":0.086,"id":"103334","site":"Juankoski","timestamp":"2024-04-20T15:40:00Z"},"type":"Feature"},{"geometry":{"coordinates":[27.7914,62.4934],"type":"Point"},"properties":{"doseRate":0.099,"id":"103335","site":"Leppävirta","timestamp":"2024-04-20T15:40:00Z"},"type":"Feature"},{"geometry":{"coordinates":[27.8964,62.3142],"type":"Point"},"properties":{"doseRate":0.102,"id":"103337","site":"Varkaus","timestamp":"2024-04-20T15:40:00Z"},"type":"Feature"},{"geometry":{"coordinates":[30.1523,62.8006],"type":"Point"},"properties":{"doseRate":0.092,"id":"103339","site":"Eno","timestamp":"2024-04-20T15:40:00Z"},"type":"Feature"},{"geometry":{"coordinates":[30.1126,62.098],"type":"Point"},"properties":{"doseRate":0.099,"id":"103340","site":"Kitee","timestamp":"2024-04-20T15:40:00Z"},"type":"Feature"},{"geometry":{"coordinates":[29.0293,62.7247],"type":"Point"},"properties":{"doseRate":0.076,"id":"103341","site":"Outokumpu","timestamp":"2024-04-20T15:40:00Z"},"type":"Feature"},{"geometry":{"coordinates":[29.8218,61.896],"type":"Point"},"properties":{"doseRate":0.1,"id":"103343","site":"Kesälahti","timestamp":"2024-04-20T15:40:00Z"},"type":"Feature"},{"geometry":{"coordinates":[30.593,62.1749],"type":"Point"},"properties":{"doseRate":0.104,"id":"103344","site":"Värtsilä","timestamp":"2024-04-20T15:40:00Z"},"type":"Feature"},{"geometry":{"coordinates":[30.6146,62.4842],"type":"Point"},"properties":{"doseRate":0.095,"id":"103345","site":"Tuupovaara","timestamp":"2024-04-20T15:40:00Z"},"type":"Feature"},{"geometry":{"coordinates":[30.2509,62.4946],"type":"Point"},"properties":{"doseRate":0.103,"id":"103346","site":"Kiihtelysvaara","timestamp":"2024-04-20T15:40:00Z"},"type":"Feature"},{"geometry":{"coordinates":[29.6301,62.3108],"type":"Point"},"properties":{"doseRate":0.091,"id":"103347","site":"Rääkkylä","timestamp":"2024-04-20T15:40:00Z"},"type":"Feature"},{"geometry":{"coordinates":[30.9405,62.6727],"type":"Point"},"properties":{"doseRate":0.077,"id":"103348","site":"Ilomantsi","timestamp":"2024-04-20T15:40:00Z"},"type":"Feature"},{"geometry":{"coordinates":[30.3355,62.2271],"type":"Point"},"properties":{"doseRate":0.117,"id":"103349","site":"Tohmajärvi","timestamp":"2024-04-20T15:40:00Z"},"type":"Feature"},{"geometry":{"coordinates":[29.074,63.5565],"type":"Point"},"properties":{"doseRate":0.084,"id":"103352","site":"Nurmes","timestamp":"2024-04-20T15:40:00Z"},"type":"Feature"},{"geometry":{"coordinates":[30.0073,63.3217],"type":"Point"},"properties":{"doseRate":0.074,"id":"103353","site":"Lieksa","timestamp":"2024-04-20T15:40:00Z"},"type":"Feature"},{"geometry":{"coordinates":[29.2561,63.2401],"type":"Point"},"properties":{"doseRate":0.109,"id":"103354","site":"Juuka","timestamp":"2024-04-20T15:40:00Z"},"type":"Feature"},{"geometry":{"coordinates":[28.8175,63.6784],"type":"Point"},"properties":{"doseRate":0.11,"id":"103355","site":"Valtimo","timestamp":"2024-04-20T15:40:00Z"},"type":"Feature"},{"geometry":{"coordinates":[27.1942,63.5713],"type":"Point"},"properties":{"doseRate":0.146,"id":"103356","site":"Iisalmi","timestamp":"2024-04-20T15:40:00Z"},"type":"Feature"},{"geometry":{"coordinates":[26.5963,63.6472],"type":"Point"},"properties":{"doseRate":0.098,"id":"103357","site":"Kiuruvesi","timestamp":"2024-04-20T15:40:00Z"},"type":"Feature"},{"geometry":{"coordinates":[26.771,63.2333],"type":"Point"},"properties":{"doseRate":0.089,"id":"103359","site":"Pielavesi","timestamp":"2024-04-20T15:40:00Z"},"type":"Feature"},{"geometry":{"coordinates":[27.0121,63.7497],"type":"Point"},"properties":{"doseRate":0.091,"id":"103360","site":"Vieremä","timestamp":"2024-04-20T15:40:00Z"},"type":"Feature"},{"geometry":{"coordinates":[27.5267,63.6736],"type":"Point"},"properties":{"doseRate":0.086,"id":"103361","site":"Sonkajärvi","timestamp":"2024-04-20T15:40:00Z"},"type":"Feature"},{"geometry":{"coordinates":[25.4951,65.0097],"type":"Point"},"properties":{"doseRate":0.132,"id":"103362","site":"Oulu Raksila","timestamp":"2024-04-20T15:40:00Z"},"type":"Feature"},{"geometry":{"coordinates":[26.8376,64.5585],"type":"Point"},"properties":{"doseRate":0.126,"id":"103363","site":"Vaala","timestamp":"2024-04-20T15:40:00Z"},"type":"Feature"},{"geometry":{"coordinates":[25.3854,65.3186],"type":"Point"},"properties":{"doseRate":0.111,"id":"103364","site":"Ii","timestamp":"2024-04-20T15:40:00Z"},"type":"Feature"},{"geometry":{"coordinates":[26.0196,64.8102],"type":"Point"},"properties":{"doseRate":0.102,"id":"103365","site":"Muhos","timestamp":"2024-04-20T15:40:00Z"},"type":"Feature"},{"geometry":{"coordinates":[24.7345,65.0154],"type":"Point"},"properties":{"doseRate":0.117,"id":"103366","site":"Hailuoto","timestamp":"2024-04-20T15:40:00Z"},"type":"Feature"},{"geometry":{"coordinates":[25.2089,65.6052],"type":"Point"},"properties":{"doseRate":0.065,"id":"103367","site":"Kuivaniemi","timestamp":"2024-04-20T15:40:00Z"},"type":"Feature"},{"geometry":{"coordinates":[25.4113,64.8074],"type":"Point"},"properties":{"doseRate":0.081,"id":"103368","site":"Liminka","timestamp":"2024-04-20T15:40:00Z"},"type":"Feature"},{"geometry":{"coordinates":[25.475,65.016],"type":"Point"},"properties":{"doseRate":0.082,"id":"103369","site":"Oulu","timestamp":"2024-04-20T15:40:00Z"},"type":"Feature"},{"geometry":{"coordinates":[24.4895,64.6736],"type":"Point"},"properties":{"doseRate":0.104,"id":"103370","site":"Raahe","timestamp":"2024-04-20T15:40:00Z"},"type":"Feature"},{"geometry":{"coordinates":[24.9903,64.4847],"type":"Point"},"properties":{"doseRate":0.083,"id":"103371","site":"Vihanti","timestamp":"2024-04-20T15:40:00Z"},"type":"Feature"},{"geometry":{"coordinates":[23.9252,64.249],"type":"Point"},"properties":{"doseRate":0.102,"id":"103373","site":"Kalajoki","timestamp":"2024-04-20T15:40:00Z"},"type":"Feature"},{"geometry":{"coordinates":[25.3649,64.1455],"type":"Point"},"properties":{"doseRate":0.111,"id":"103374","site":"Haapavesi","timestamp":"2024-04-20T15:40:00Z"},"type":"Feature"},{"geometry":{"coordinates":[25.3301,63.7546],"type":"Point"},"properties":{"doseRate":0.081,"id":"103375","site":"Haapajärvi","timestamp":"2024-04-20T15:40:00Z"},"type":"Feature"},{"geometry":{"coordinates":[25.9738,63.6828],"type":"Point"},"properties":{"doseRate":0.117,"id":"103377","site":"Pyhäjärvi","timestamp":"2024-04-20T15:40:00Z"},"type":"Feature"},{"geometry":{"coordinates":[29.5209,64.1267],"type":"Point"},"properties":{"doseRate":0.083,"id":"103383","site":"Kuhmo","timestamp":"2024-04-20T15:40:00Z"},"type":"Feature"},{"geometry":{"coordinates":[28.9173,64.8818],"type":"Point"},"properties":{"doseRate":0.073,"id":"103384","site":"Suomussalmi","timestamp":"2024-04-20T15:40:00Z"},"type":"Feature"},{"geometry":{"coordinates":[29.4611,65.219],"type":"Point"},"properties":{"doseRate":0.06,"id":"103385","site":"Juntusranta","timestamp":"2024-04-20T15:40:00Z"},"type":"Feature"},{"geometry":{"coordinates":[27.6747,64.868],"type":"Point"},"properties":{"doseRate":0.131,"id":"103386","site":"Puolanka","timestamp":"2024-04-20T15:40:00Z"},"type":"Feature"},{"geometry":{"coordinates":[29.9663,64.5418],"type":"Point"},"properties":{"doseRate":0.054,"id":"103387","site":"Vartius","timestamp":"2024-04-20T15:40:00Z"},"type":"Feature"},{"geometry":{"coordinates":[29.1721,65.9684],"type":"Point"},"properties":{"doseRate":0.08,"id":"103388","site":"Kuusamo","timestamp":"2024-04-20T15:40:00Z"},"type":"Feature"},{"geometry":{"coordinates":[26.9988,65.3614],"type":"Point"},"properties":{"doseRate":0.098,"id":"103389","site":"Pudasjärvi","timestamp":"2024-04-20T15:40:00Z"},"type":"Feature"},{"geometry":{"coordinates":[27.7159,65.6421],"type":"Point"},"properties":{"doseRate":0.059,"id":"103390","site":"Syöte","timestamp":"2024-04-20T15:40:00Z"},"type":"Feature"},{"geometry":{"coordinates":[30.0976,65.799],"type":"Point"},"properties":{"doseRate":0.071,"id":"103392","site":"Kortesalmi","timestamp":"2024-04-20T15:40:00Z"},"type":"Feature"},{"geometry":{"coordinates":[25.7513,66.4972],"type":"Point"},"properties":{"doseRate":0.084,"id":"103393","site":"Rovaniemi","timestamp":"2024-04-20T15:40:00Z"},"type":"Feature"},{"geometry":{"coordinates":[26.5267,65.9242],"type":"Point"},"properties":{"doseRate":0.06,"id":"103395","site":"Ranua","timestamp":"2024-04-20T15:40:00Z"},"type":"Feature"},{"geometry":{"coordinates":[26.8838,66.3406],"type":"Point"},"properties":{"doseRate":0.068,"id":"103397","site":"Pekkala","timestamp":"2024-04-20T15:40:00Z"},"type":"Feature"},{"geometry":{"coordinates":[24.8194,66.094],"type":"Point"},"properties":{"doseRate":0.058,"id":"103398","site":"Tervola","timestamp":"2024-04-20T15:40:00Z"},"type":"Feature"},{"geometry":{"coordinates":[24.1747,65.8472],"type":"Point"},"properties":{"doseRate":0.086,"id":"103399","site":"Tornio","timestamp":"2024-04-20T15:40:00Z"},"type":"Feature"},{"geometry":{"coordinates":[24.589,65.7425],"type":"Point"},"properties":{"doseRate":0.057,"id":"103400","site":"Kemi","timestamp":"2024-04-20T15:40:00Z"},"type":"Feature"},{"geometry":{"coordinates":[27.3892,66.7249],"type":"Point"},"properties":{"doseRate":0.081,"id":"103401","site":"Kemijärvi","timestamp":"2024-04-20T15:40:00Z"},"type":"Feature"},{"geometry":{"coordinates":[28.6727,66.8338],"type":"Point"},"properties":{"doseRate":0.068,"id":"103402","site":"Salla","timestamp":"2024-04-20T15:40:00Z"},"type":"Feature"},{"geometry":{"coordinates":[27.5157,67.1074],"type":"Point"},"properties":{"doseRate":0.06,"id":"103403","site":"Pelkosenniemi","timestamp":"2024-04-20T15:40:00Z"},"type":"Feature"},{"geometry":{"coordinates":[28.977,66.9448],"type":"Point"},"properties":{"doseRate":0.061,"id":"103405","site":"Kelloselkä","timestamp":"2024-04-20T15:40:00Z"},"type":"Feature"},{"geometry":{"coordinates":[29.6103,67.7484],"type":"Point"},"properties":{"doseRate":0.051,"id":"103406","site":"Värriö","timestamp":"2024-04-20T15:40:00Z"},"type":"Feature"},{"geometry":{"coordinates":[26.6065,67.4213],"type":"Point"},"properties":{"doseRate":0.066,"id":"103407","site":"Sodankylä","timestamp":"2024-04-20T15:40:00Z"},"type":"Feature"},{"geometry":{"coordinates":[24.8994,67.6595],"type":"Point"},"properties":{"doseRate":0.063,"id":"103409","site":"Kittilä","timestamp":"2024-04-20T15:40:00Z"},"type":"Feature"},{"geometry":{"coordinates":[23.9629,66.7728],"type":"Point"},"properties":{"doseRate":0.078,"id":"103410","site":"Pello","timestamp":"2024-04-20T15:40:00Z"},"type":"Feature"},{"geometry":{"coordinates":[23.6917,66.3392],"type":"Point"},"properties":{"doseRate":0.079,"id":"103412","site":"Ylitornio","timestamp":"2024-04-20T15:40:00Z"},"type":"Feature"},{"geometry":{"coordinates":[23.6834,67.9588],"type":"Point"},"properties":{"doseRate":0.079,"id":"103413","site":"Muonio","timestamp":"2024-04-20T15:40:00Z"},"type":"Feature"},{"geometry":{"coordinates":[23.5992,68.3882],"type":"Point"},"properties":{"doseRate":0.065,"id":"103414","site":"Enontekiö","timestamp":"2024-04-20T15:40:00Z"},"type":"Feature"},{"geometry":{"coordinates":[27.5352,68.6576],"type":"Point"},"properties":{"doseRate":0.087,"id":"103417","site":"Ivalo","timestamp":"2024-04-20T15:40:00Z"},"type":"Feature"},{"geometry":{"coordinates":[27.0151,69.8998],"type":"Point"},"properties":{"doseRate":0.06,"id":"103421","site":"Utsjoki","timestamp":"2024-04-20T15:40:00Z"},"type":"Feature"},{"geometry":{"coordinates":[28.3179,68.4717],"type":"Point"},"properties":{"doseRate":0.071,"id":"103425","site":"Raja-Jooseppi","timestamp":"2024-04-20T15:40:00Z"},"type":"Feature"},{"geometry":{"coordinates":[26.2027,68.4678],"type":"Point"},"properties":{"doseRate":0.063,"id":"103426","site":"Litmurivaara","timestamp":"2024-04-20T15:40:00Z"},"type":"Feature"},{"geometry":{"coordinates":[27.8682,70.0821],"type":"Point"},"properties":{"doseRate":0.053,"id":"103427","site":"Nuorgam","timestamp":"2024-04-20T15:40:00Z"},"type":"Feature"},{"geometry":{"coordinates":[27.5689,68.641],"type":"Point"},"properties":{"doseRate":0.071,"id":"104794","site":"Ivalo Rv","timestamp":"2024-04-20T15:40:00Z"},"type":"Feature"},{"geometry":{"coordinates":[26.6297,67.367],"type":"Point"},"properties":{"doseRate":0.072,"id":"104795","site":"Sodankylä IL","timestamp":"2024-04-20T15:40:00Z"},"type":"Feature"},{"geometry":{"coordinates":[27.7057,64.2021],"type":"Point"},"properties":{"doseRate":0.079,"id":"106433","site":"Kainuun prikaati","timestamp":"2024-04-20T15:40:00Z"},"type":"Feature"},{"geometry":{"coordinates":[24.2595,64.4657],"type":"Point"},"properties":{"doseRate":0.141,"id":"106801","site":"Pyhäjoki","timestamp":"2024-04-20T15:40:00Z"},"type":"Feature"}],"name":"stuk_open_data_dose_rates","type":"FeatureCollection"}