{"crs":{"properties":{"name":"urn:ogc:def:crs:OGC:1.3:CRS84"},"type":"name"},"features":[{"geometry":{"coordinates":[24.9502,60.1846],"type":"Point"},"properties":{"doseRate":0.161,"id":"103169","site":"Kallio","timestamp":"2024-03-31T03:31:00Z"},"type":"Feature"},{"geometry":{"coordinates":[19.9277,60.1062],"type":"Point"},"properties":{"doseRate":0.164,"id":"103226","site":"Maarianhamina","timestamp":"2024-03-31T03:31:00Z"},"type":"Feature"},{"geometry":{"coordinates":[24.7246,61.4087],"type":"Point"},"properties":{"doseRate":0.085,"id":"103230","site":"Rautajärvi","timestamp":"2024-03-31T03:31:00Z"},"type":"Feature"},{"geometry":{"coordinates":[27.5563,60.9216],"type":"Point"},"properties":{"doseRate":0.138,"id":"103282","site":"Luumäki","timestamp":"2024-03-31T03:31:00Z"},"type":"Feature"},{"geometry":{"coordinates":[29.3854,61.7605],"type":"Point"},"properties":{"doseRate":0.094,"id":"103300","site":"Punkaharju","timestamp":"2024-03-31T03:31:00Z"},"type":"Feature"},{"geometry":{"coordinates":[22.8926,62.7755],"type":"Point"},"properties":{"doseRate":0.091,"id":"103315","site":"Seinäjoki","timestamp":"2024-03-31T03:31:00Z"},"type":"Feature"},{"geometry":{"coordinates":[30.593,62.1749],"type":"Point"},"properties":{"doseRate":0.081,"id":"103344","site":"Värtsilä","timestamp":"2024-03-31T03:31:00Z"},"type":"Feature"},{"geometry":{"coordinates":[27.7255,64.217],"type":"Point"},"properties":{"doseRate":0.126,"id":"103379","site":"Kajaani","timestamp":"2024-03-31T03:31:00Z"},"type":"Feature"},{"geometry":{"coordinates":[24.1747,65.8472],"type":"Point"},"properties":{"doseRate":0.073,"id":"103399","site":"Tornio","timestamp":"2024-03-31T03:31:00Z"},"type":"Feature"},{"geometry":{"coordinates":[27.3892,66.7249],"type":"Point"},"properties":{"doseRate":0.067,"id":"103401","site":"Kemijärvi","timestamp":"2024-03-31T03:31:00Z"},"type":"Feature"},{"geometry":{"coordinates":[27.1202,68.1017],"type":"Point"},"properties":{"doseRate":0.057,"id":"103408","site":"Vuotso","timestamp":"2024-03-31T03:31:00Z"},"type":"Feature"}],"name":"stuk_open_data_dose_rates","type":"FeatureCollection"}