{"crs":{"properties":{"name":"urn:ogc:def:crs:OGC:1.3:CRS84"},"type":"name"},"features":[{"geometry":{"coordinates":[25.1788,60.2229],"type":"Point"},"properties":{"doseRate":0.106,"id":"103170","site":"Helsinki Vuosaaren Satama","timestamp":"2024-04-20T19:00:00Z"},"type":"Feature"},{"geometry":{"coordinates":[24.9903,60.1464],"type":"Point"},"properties":{"doseRate":0.147,"id":"103171","site":"Helsinki Suomenlinna","timestamp":"2024-04-20T19:00:00Z"},"type":"Feature"},{"geometry":{"coordinates":[24.7409,60.2078],"type":"Point"},"properties":{"doseRate":0.113,"id":"103172","site":"Espoo","timestamp":"2024-04-20T19:00:00Z"},"type":"Feature"},{"geometry":{"coordinates":[24.9322,60.1721],"type":"Point"},"properties":{"doseRate":0.126,"id":"103174","site":"Helsinki Töölö","timestamp":"2024-04-20T19:00:00Z"},"type":"Feature"},{"geometry":{"coordinates":[24.4466,60.1105],"type":"Point"},"properties":{"doseRate":0.161,"id":"103175","site":"Kirkkonummi","timestamp":"2024-04-20T19:00:00Z"},"type":"Feature"},{"geometry":{"coordinates":[25.2645,60.3791],"type":"Point"},"properties":{"doseRate":0.14,"id":"103176","site":"Sipoo","timestamp":"2024-04-20T19:00:00Z"},"type":"Feature"},{"geometry":{"coordinates":[24.9612,60.204],"type":"Point"},"properties":{"doseRate":0.128,"id":"103177","site":"Helsinki Kumpula","timestamp":"2024-04-20T19:00:00Z"},"type":"Feature"},{"geometry":{"coordinates":[24.9593,60.3079],"type":"Point"},"properties":{"doseRate":0.13,"id":"103178","site":"Vantaa","timestamp":"2024-04-20T19:00:00Z"},"type":"Feature"},{"geometry":{"coordinates":[25.1121,60.4069],"type":"Point"},"properties":{"doseRate":0.102,"id":"103179","site":"Kerava","timestamp":"2024-04-20T19:00:00Z"},"type":"Feature"},{"geometry":{"coordinates":[24.8133,60.461],"type":"Point"},"properties":{"doseRate":0.114,"id":"103180","site":"Nurmijärvi","timestamp":"2024-04-20T19:00:00Z"},"type":"Feature"},{"geometry":{"coordinates":[26.2241,60.4547],"type":"Point"},"properties":{"doseRate":0.201,"id":"103181","site":"Loviisa","timestamp":"2024-04-20T19:00:00Z"},"type":"Feature"},{"geometry":{"coordinates":[26.4444,60.2749],"type":"Point"},"properties":{"doseRate":0.118,"id":"103185","site":"Orrengrund","timestamp":"2024-04-20T19:00:00Z"},"type":"Feature"},{"geometry":{"coordinates":[26.0208,61.195],"type":"Point"},"properties":{"doseRate":0.114,"id":"103186","site":"Heinola","timestamp":"2024-04-20T19:00:00Z"},"type":"Feature"},{"geometry":{"coordinates":[25.6917,61.5066],"type":"Point"},"properties":{"doseRate":0.1,"id":"103187","site":"Sysmä","timestamp":"2024-04-20T19:00:00Z"},"type":"Feature"},{"geometry":{"coordinates":[23.4663,59.9819],"type":"Point"},"properties":{"doseRate":0.108,"id":"103188","site":"Tammisaari","timestamp":"2024-04-20T19:00:00Z"},"type":"Feature"},{"geometry":{"coordinates":[22.994,59.8364],"type":"Point"},"properties":{"doseRate":0.129,"id":"103189","site":"Hanko","timestamp":"2024-04-20T19:00:00Z"},"type":"Feature"},{"geometry":{"coordinates":[24.0041,60.0541],"type":"Point"},"properties":{"doseRate":0.132,"id":"103191","site":"Inkoo","timestamp":"2024-04-20T19:00:00Z"},"type":"Feature"},{"geometry":{"coordinates":[23.5721,59.822],"type":"Point"},"properties":{"doseRate":0.134,"id":"103192","site":"Jussarö","timestamp":"2024-04-20T19:00:00Z"},"type":"Feature"},{"geometry":{"coordinates":[24.0237,60.2233],"type":"Point"},"properties":{"doseRate":0.104,"id":"103193","site":"Lohja","timestamp":"2024-04-20T19:00:00Z"},"type":"Feature"},{"geometry":{"coordinates":[24.283,60.325],"type":"Point"},"properties":{"doseRate":0.133,"id":"103194","site":"Nummela","timestamp":"2024-04-20T19:00:00Z"},"type":"Feature"},{"geometry":{"coordinates":[24.6681,60.1462],"type":"Point"},"properties":{"doseRate":0.142,"id":"103195","site":"Espoonlahti","timestamp":"2024-04-20T19:00:00Z"},"type":"Feature"},{"geometry":{"coordinates":[24.2379,60.5288],"type":"Point"},"properties":{"doseRate":0.119,"id":"103196","site":"Karkkila","timestamp":"2024-04-20T19:00:00Z"},"type":"Feature"},{"geometry":{"coordinates":[24.7449,60.7482],"type":"Point"},"properties":{"doseRate":0.1,"id":"103197","site":"Riihimäki","timestamp":"2024-04-20T19:00:00Z"},"type":"Feature"},{"geometry":{"coordinates":[25.6087,60.3918],"type":"Point"},"properties":{"doseRate":0.135,"id":"103198","site":"Porvoo","timestamp":"2024-04-20T19:00:00Z"},"type":"Feature"},{"geometry":{"coordinates":[25.0121,61.0743],"type":"Point"},"properties":{"doseRate":0.106,"id":"103202","site":"Lammi","timestamp":"2024-04-20T19:00:00Z"},"type":"Feature"},{"geometry":{"coordinates":[25.6722,60.9778],"type":"Point"},"properties":{"doseRate":0.103,"id":"103205","site":"Lahti","timestamp":"2024-04-20T19:00:00Z"},"type":"Feature"},{"geometry":{"coordinates":[26.0534,60.7455],"type":"Point"},"properties":{"doseRate":0.131,"id":"103209","site":"Artjärvi","timestamp":"2024-04-20T19:00:00Z"},"type":"Feature"},{"geometry":{"coordinates":[25.2699,61.3487],"type":"Point"},"properties":{"doseRate":0.129,"id":"103210","site":"Padasjoki","timestamp":"2024-04-20T19:00:00Z"},"type":"Feature"},{"geometry":{"coordinates":[25.9712,60.9331],"type":"Point"},"properties":{"doseRate":0.148,"id":"103211","site":"Nastola","timestamp":"2024-04-20T19:00:00Z"},"type":"Feature"},{"geometry":{"coordinates":[22.2658,60.4437],"type":"Point"},"properties":{"doseRate":0.111,"id":"103213","site":"Turku Vähäheikkilä","timestamp":"2024-04-20T19:00:00Z"},"type":"Feature"},{"geometry":{"coordinates":[22.8878,60.586],"type":"Point"},"properties":{"doseRate":0.15,"id":"103214","site":"Marttila","timestamp":"2024-04-20T19:00:00Z"},"type":"Feature"},{"geometry":{"coordinates":[22.4153,60.8776],"type":"Point"},"properties":{"doseRate":0.099,"id":"103215","site":"Yläne","timestamp":"2024-04-20T19:00:00Z"},"type":"Feature"},{"geometry":{"coordinates":[21.4143,60.8061],"type":"Point"},"properties":{"doseRate":0.131,"id":"103216","site":"Uusikaupunki","timestamp":"2024-04-20T19:00:00Z"},"type":"Feature"},{"geometry":{"coordinates":[21.696,60.8826],"type":"Point"},"properties":{"doseRate":0.116,"id":"103217","site":"Laitila","timestamp":"2024-04-20T19:00:00Z"},"type":"Feature"},{"geometry":{"coordinates":[23.0184,60.8396],"type":"Point"},"properties":{"doseRate":0.148,"id":"103219","site":"Loimaa","timestamp":"2024-04-20T19:00:00Z"},"type":"Feature"},{"geometry":{"coordinates":[23.1301,60.3964],"type":"Point"},"properties":{"doseRate":0.117,"id":"103220","site":"Salo","timestamp":"2024-04-20T19:00:00Z"},"type":"Feature"},{"geometry":{"coordinates":[22.2969,60.311],"type":"Point"},"properties":{"doseRate":0.107,"id":"103221","site":"Parainen","timestamp":"2024-04-20T19:00:00Z"},"type":"Feature"},{"geometry":{"coordinates":[21.8957,60.1985],"type":"Point"},"properties":{"doseRate":0.131,"id":"103222","site":"Nauvo","timestamp":"2024-04-20T19:00:00Z"},"type":"Feature"},{"geometry":{"coordinates":[21.3609,60.2212],"type":"Point"},"properties":{"doseRate":0.14,"id":"103223","site":"Houtskari","timestamp":"2024-04-20T19:00:00Z"},"type":"Feature"},{"geometry":{"coordinates":[21.5634,60.1609],"type":"Point"},"properties":{"doseRate":0.136,"id":"103225","site":"Korppoo","timestamp":"2024-04-20T19:00:00Z"},"type":"Feature"},{"geometry":{"coordinates":[19.9277,60.1062],"type":"Point"},"properties":{"doseRate":0.168,"id":"103226","site":"Maarianhamina","timestamp":"2024-04-20T19:00:00Z"},"type":"Feature"},{"geometry":{"coordinates":[20.3773,60.2443],"type":"Point"},"properties":{"doseRate":0.213,"id":"103227","site":"Vårdö","timestamp":"2024-04-20T19:00:00Z"},"type":"Feature"},{"geometry":{"coordinates":[19.5543,60.2243],"type":"Point"},"properties":{"doseRate":0.125,"id":"103228","site":"Eckerö","timestamp":"2024-04-20T19:00:00Z"},"type":"Feature"},{"geometry":{"coordinates":[23.789,61.5104],"type":"Point"},"properties":{"doseRate":0.142,"id":"103229","site":"Tampere","timestamp":"2024-04-20T19:00:00Z"},"type":"Feature"},{"geometry":{"coordinates":[24.3508,61.6751],"type":"Point"},"properties":{"doseRate":0.119,"id":"103231","site":"Orivesi","timestamp":"2024-04-20T19:00:00Z"},"type":"Feature"},{"geometry":{"coordinates":[23.0757,61.7525],"type":"Point"},"properties":{"doseRate":0.105,"id":"103232","site":"Ikaalinen","timestamp":"2024-04-20T19:00:00Z"},"type":"Feature"},{"geometry":{"coordinates":[23.0019,61.9949],"type":"Point"},"properties":{"doseRate":0.118,"id":"103233","site":"Parkano","timestamp":"2024-04-20T19:00:00Z"},"type":"Feature"},{"geometry":{"coordinates":[23.0393,61.5069],"type":"Point"},"properties":{"doseRate":0.131,"id":"103234","site":"Mouhijärvi","timestamp":"2024-04-20T19:00:00Z"},"type":"Feature"},{"geometry":{"coordinates":[23.7761,62.2381],"type":"Point"},"properties":{"doseRate":0.104,"id":"103238","site":"Virrat","timestamp":"2024-04-20T19:00:00Z"},"type":"Feature"},{"geometry":{"coordinates":[23.618,61.0694],"type":"Point"},"properties":{"doseRate":0.119,"id":"103240","site":"Urjala","timestamp":"2024-04-20T19:00:00Z"},"type":"Feature"},{"geometry":{"coordinates":[21.4996,61.1232],"type":"Point"},"properties":{"doseRate":0.097,"id":"103241","site":"Rauma","timestamp":"2024-04-20T19:00:00Z"},"type":"Feature"},{"geometry":{"coordinates":[21.738,61.2051],"type":"Point"},"properties":{"doseRate":0.15,"id":"103242","site":"Eurajoki","timestamp":"2024-04-20T19:00:00Z"},"type":"Feature"},{"geometry":{"coordinates":[21.8422,61.1028],"type":"Point"},"properties":{"doseRate":0.145,"id":"103243","site":"Lappi TL","timestamp":"2024-04-20T19:00:00Z"},"type":"Feature"},{"geometry":{"coordinates":[21.5828,61.2751],"type":"Point"},"properties":{"doseRate":0.152,"id":"103244","site":"Kuivalahti","timestamp":"2024-04-20T19:00:00Z"},"type":"Feature"},{"geometry":{"coordinates":[21.6224,61.3626],"type":"Point"},"properties":{"doseRate":0.133,"id":"103246","site":"Luvia","timestamp":"2024-04-20T19:00:00Z"},"type":"Feature"},{"geometry":{"coordinates":[22.1441,61.3067],"type":"Point"},"properties":{"doseRate":0.107,"id":"103247","site":"Harjavalta","timestamp":"2024-04-20T19:00:00Z"},"type":"Feature"},{"geometry":{"coordinates":[22.7023,61.2017],"type":"Point"},"properties":{"doseRate":0.122,"id":"103248","site":"Huittinen","timestamp":"2024-04-20T19:00:00Z"},"type":"Feature"},{"geometry":{"coordinates":[22.0063,61.6934],"type":"Point"},"properties":{"doseRate":0.109,"id":"103250","site":"Pomarkku","timestamp":"2024-04-20T19:00:00Z"},"type":"Feature"},{"geometry":{"coordinates":[21.5002,61.864],"type":"Point"},"properties":{"doseRate":0.106,"id":"103253","site":"Merikarvia","timestamp":"2024-04-20T19:00:00Z"},"type":"Feature"},{"geometry":{"coordinates":[26.1155,61.9192],"type":"Point"},"properties":{"doseRate":0.107,"id":"103255","site":"Leivonmäki","timestamp":"2024-04-20T19:00:00Z"},"type":"Feature"},{"geometry":{"coordinates":[26.4345,62.3913],"type":"Point"},"properties":{"doseRate":0.084,"id":"103256","site":"Hankasalmi","timestamp":"2024-04-20T19:00:00Z"},"type":"Feature"},{"geometry":{"coordinates":[25.1715,62.2638],"type":"Point"},"properties":{"doseRate":0.101,"id":"103257","site":"Petäjävesi","timestamp":"2024-04-20T19:00:00Z"},"type":"Feature"},{"geometry":{"coordinates":[25.1789,61.8622],"type":"Point"},"properties":{"doseRate":0.112,"id":"103258","site":"Jämsä","timestamp":"2024-04-20T19:00:00Z"},"type":"Feature"},{"geometry":{"coordinates":[24.7954,62.8729],"type":"Point"},"properties":{"doseRate":0.105,"id":"103261","site":"Karstula","timestamp":"2024-04-20T19:00:00Z"},"type":"Feature"},{"geometry":{"coordinates":[26.7037,60.8791],"type":"Point"},"properties":{"doseRate":0.178,"id":"103266","site":"Kouvola","timestamp":"2024-04-20T19:00:00Z"},"type":"Feature"},{"geometry":{"coordinates":[26.3586,60.889],"type":"Point"},"properties":{"doseRate":0.17,"id":"103267","site":"Iitti","timestamp":"2024-04-20T19:00:00Z"},"type":"Feature"},{"geometry":{"coordinates":[26.4531,60.7206],"type":"Point"},"properties":{"doseRate":0.152,"id":"103269","site":"Elimäki","timestamp":"2024-04-20T19:00:00Z"},"type":"Feature"},{"geometry":{"coordinates":[26.9175,60.4852],"type":"Point"},"properties":{"doseRate":0.2,"id":"103271","site":"Kotka","timestamp":"2024-04-20T19:00:00Z"},"type":"Feature"},{"geometry":{"coordinates":[27.1199,60.5642],"type":"Point"},"properties":{"doseRate":0.233,"id":"103272","site":"Hamina","timestamp":"2024-04-20T19:00:00Z"},"type":"Feature"},{"geometry":{"coordinates":[27.6959,60.6679],"type":"Point"},"properties":{"doseRate":0.186,"id":"103273","site":"Miehikkälä","timestamp":"2024-04-20T19:00:00Z"},"type":"Feature"},{"geometry":{"coordinates":[26.7408,60.4987],"type":"Point"},"properties":{"doseRate":0.2,"id":"103274","site":"Pyhtää","timestamp":"2024-04-20T19:00:00Z"},"type":"Feature"},{"geometry":{"coordinates":[27.7027,60.5833],"type":"Point"},"properties":{"doseRate":0.194,"id":"103275","site":"Virolahti","timestamp":"2024-04-20T19:00:00Z"},"type":"Feature"},{"geometry":{"coordinates":[27.1847,60.2872],"type":"Point"},"properties":{"doseRate":0.167,"id":"103276","site":"Haapasaari","timestamp":"2024-04-20T19:00:00Z"},"type":"Feature"},{"geometry":{"coordinates":[27.4606,60.5168],"type":"Point"},"properties":{"doseRate":0.16,"id":"103277","site":"Klamila","timestamp":"2024-04-20T19:00:00Z"},"type":"Feature"},{"geometry":{"coordinates":[27.3053,60.7668],"type":"Point"},"properties":{"doseRate":0.171,"id":"103278","site":"Pyhältö","timestamp":"2024-04-20T19:00:00Z"},"type":"Feature"},{"geometry":{"coordinates":[27.7393,60.4897],"type":"Point"},"properties":{"doseRate":0.186,"id":"103279","site":"Hurppu","timestamp":"2024-04-20T19:00:00Z"},"type":"Feature"},{"geometry":{"coordinates":[28.2088,61.0582],"type":"Point"},"properties":{"doseRate":0.118,"id":"103280","site":"Lappeenranta","timestamp":"2024-04-20T19:00:00Z"},"type":"Feature"},{"geometry":{"coordinates":[27.5563,60.9216],"type":"Point"},"properties":{"doseRate":0.16,"id":"103282","site":"Luumäki","timestamp":"2024-04-20T19:00:00Z"},"type":"Feature"},{"geometry":{"coordinates":[27.9994,60.7992],"type":"Point"},"properties":{"doseRate":0.134,"id":"103284","site":"Ylämaa","timestamp":"2024-04-20T19:00:00Z"},"type":"Feature"},{"geometry":{"coordinates":[28.827,61.133],"type":"Point"},"properties":{"doseRate":0.115,"id":"103286","site":"Imatra Pelkola","timestamp":"2024-04-20T19:00:00Z"},"type":"Feature"},{"geometry":{"coordinates":[29.3619,61.4351],"type":"Point"},"properties":{"doseRate":0.121,"id":"103288","site":"Rautjärvi","timestamp":"2024-04-20T19:00:00Z"},"type":"Feature"},{"geometry":{"coordinates":[29.5034,61.5494],"type":"Point"},"properties":{"doseRate":0.122,"id":"103289","site":"Parikkala","timestamp":"2024-04-20T19:00:00Z"},"type":"Feature"},{"geometry":{"coordinates":[28.486,61.1119],"type":"Point"},"properties":{"doseRate":0.114,"id":"103290","site":"Joutseno","timestamp":"2024-04-20T19:00:00Z"},"type":"Feature"},{"geometry":{"coordinates":[27.2538,61.6807],"type":"Point"},"properties":{"doseRate":0.125,"id":"103291","site":"Mikkeli","timestamp":"2024-04-20T19:00:00Z"},"type":"Feature"},{"geometry":{"coordinates":[27.8537,61.8974],"type":"Point"},"properties":{"doseRate":0.111,"id":"103292","site":"Juva","timestamp":"2024-04-20T19:00:00Z"},"type":"Feature"},{"geometry":{"coordinates":[26.645,61.9874],"type":"Point"},"properties":{"doseRate":0.093,"id":"103293","site":"Kangasniemi","timestamp":"2024-04-20T19:00:00Z"},"type":"Feature"},{"geometry":{"coordinates":[28.1848,61.5336],"type":"Point"},"properties":{"doseRate":0.109,"id":"103294","site":"Puumala","timestamp":"2024-04-20T19:00:00Z"},"type":"Feature"},{"geometry":{"coordinates":[26.4789,61.503],"type":"Point"},"properties":{"doseRate":0.118,"id":"103296","site":"Pertunmaa","timestamp":"2024-04-20T19:00:00Z"},"type":"Feature"},{"geometry":{"coordinates":[27.2648,61.5115],"type":"Point"},"properties":{"doseRate":0.096,"id":"103297","site":"Ristiina","timestamp":"2024-04-20T19:00:00Z"},"type":"Feature"},{"geometry":{"coordinates":[28.8648,61.8679],"type":"Point"},"properties":{"doseRate":0.098,"id":"103299","site":"Savonlinna","timestamp":"2024-04-20T19:00:00Z"},"type":"Feature"},{"geometry":{"coordinates":[29.2812,61.9163],"type":"Point"},"properties":{"doseRate":0.098,"id":"103301","site":"Kerimäki","timestamp":"2024-04-20T19:00:00Z"},"type":"Feature"},{"geometry":{"coordinates":[29.2059,62.1717],"type":"Point"},"properties":{"doseRate":0.078,"id":"103302","site":"Savonranta","timestamp":"2024-04-20T19:00:00Z"},"type":"Feature"},{"geometry":{"coordinates":[27.818,62.1844],"type":"Point"},"properties":{"doseRate":0.099,"id":"103306","site":"Joroinen","timestamp":"2024-04-20T19:00:00Z"},"type":"Feature"},{"geometry":{"coordinates":[28.6323,62.4273],"type":"Point"},"properties":{"doseRate":0.098,"id":"103307","site":"Heinävesi","timestamp":"2024-04-20T19:00:00Z"},"type":"Feature"},{"geometry":{"coordinates":[21.3274,63.3467],"type":"Point"},"properties":{"doseRate":0.148,"id":"103311","site":"Björköby","timestamp":"2024-04-20T19:00:00Z"},"type":"Feature"},{"geometry":{"coordinates":[21.3698,62.2789],"type":"Point"},"properties":{"doseRate":0.117,"id":"103312","site":"Kristiinankaupunki","timestamp":"2024-04-20T19:00:00Z"},"type":"Feature"},{"geometry":{"coordinates":[22.1755,62.4262],"type":"Point"},"properties":{"doseRate":0.106,"id":"103313","site":"Kauhajoki","timestamp":"2024-04-20T19:00:00Z"},"type":"Feature"},{"geometry":{"coordinates":[23.0187,62.9745],"type":"Point"},"properties":{"doseRate":0.11,"id":"103316","site":"Lapua","timestamp":"2024-04-20T19:00:00Z"},"type":"Feature"},{"geometry":{"coordinates":[22.7605,62.4944],"type":"Point"},"properties":{"doseRate":0.104,"id":"103317","site":"Jalasjärvi","timestamp":"2024-04-20T19:00:00Z"},"type":"Feature"},{"geometry":{"coordinates":[22.3926,62.6185],"type":"Point"},"properties":{"doseRate":0.099,"id":"103318","site":"Kurikka","timestamp":"2024-04-20T19:00:00Z"},"type":"Feature"},{"geometry":{"coordinates":[24.0992,62.5529],"type":"Point"},"properties":{"doseRate":0.087,"id":"103320","site":"Ähtäri","timestamp":"2024-04-20T19:00:00Z"},"type":"Feature"},{"geometry":{"coordinates":[23.8173,62.9999],"type":"Point"},"properties":{"doseRate":0.086,"id":"103321","site":"Alajärvi","timestamp":"2024-04-20T19:00:00Z"},"type":"Feature"},{"geometry":{"coordinates":[22.7216,63.6891],"type":"Point"},"properties":{"doseRate":0.09,"id":"103322","site":"Pietarsaari","timestamp":"2024-04-20T19:00:00Z"},"type":"Feature"},{"geometry":{"coordinates":[23.1234,63.8446],"type":"Point"},"properties":{"doseRate":0.088,"id":"103323","site":"Kokkola","timestamp":"2024-04-20T19:00:00Z"},"type":"Feature"},{"geometry":{"coordinates":[24.6646,63.526],"type":"Point"},"properties":{"doseRate":0.08,"id":"103325","site":"Lestijärvi","timestamp":"2024-04-20T19:00:00Z"},"type":"Feature"},{"geometry":{"coordinates":[23.9127,63.8989],"type":"Point"},"properties":{"doseRate":0.097,"id":"103326","site":"Kannus","timestamp":"2024-04-20T19:00:00Z"},"type":"Feature"},{"geometry":{"coordinates":[27.6268,62.8863],"type":"Point"},"properties":{"doseRate":0.097,"id":"103327","site":"Kuopio","timestamp":"2024-04-20T19:00:00Z"},"type":"Feature"},{"geometry":{"coordinates":[27.1343,62.6279],"type":"Point"},"properties":{"doseRate":0.098,"id":"103328","site":"Suonenjoki","timestamp":"2024-04-20T19:00:00Z"},"type":"Feature"},{"geometry":{"coordinates":[28.4961,62.8043],"type":"Point"},"properties":{"doseRate":0.087,"id":"103330","site":"Tuusniemi","timestamp":"2024-04-20T19:00:00Z"},"type":"Feature"},{"geometry":{"coordinates":[28.3086,63.4862],"type":"Point"},"properties":{"doseRate":0.063,"id":"103331","site":"Rautavaara","timestamp":"2024-04-20T19:00:00Z"},"type":"Feature"},{"geometry":{"coordinates":[28.0606,63.2144],"type":"Point"},"properties":{"doseRate":0.064,"id":"103332","site":"Nilsiä","timestamp":"2024-04-20T19:00:00Z"},"type":"Feature"},{"geometry":{"coordinates":[28.3231,63.0643],"type":"Point"},"properties":{"doseRate":0.08,"id":"103334","site":"Juankoski","timestamp":"2024-04-20T19:00:00Z"},"type":"Feature"},{"geometry":{"coordinates":[27.6773,63.0818],"type":"Point"},"properties":{"doseRate":0.078,"id":"103336","site":"Siilinjärvi","timestamp":"2024-04-20T19:00:00Z"},"type":"Feature"},{"geometry":{"coordinates":[27.8964,62.3142],"type":"Point"},"properties":{"doseRate":0.101,"id":"103337","site":"Varkaus","timestamp":"2024-04-20T19:00:00Z"},"type":"Feature"},{"geometry":{"coordinates":[30.1523,62.8006],"type":"Point"},"properties":{"doseRate":0.088,"id":"103339","site":"Eno","timestamp":"2024-04-20T19:00:00Z"},"type":"Feature"},{"geometry":{"coordinates":[29.0293,62.7247],"type":"Point"},"properties":{"doseRate":0.085,"id":"103341","site":"Outokumpu","timestamp":"2024-04-20T19:00:00Z"},"type":"Feature"},{"geometry":{"coordinates":[29.3663,62.854],"type":"Point"},"properties":{"doseRate":0.083,"id":"103342","site":"Polvijärvi","timestamp":"2024-04-20T19:00:00Z"},"type":"Feature"},{"geometry":{"coordinates":[30.593,62.1749],"type":"Point"},"properties":{"doseRate":0.104,"id":"103344","site":"Värtsilä","timestamp":"2024-04-20T19:00:00Z"},"type":"Feature"},{"geometry":{"coordinates":[30.2509,62.4946],"type":"Point"},"properties":{"doseRate":0.099,"id":"103346","site":"Kiihtelysvaara","timestamp":"2024-04-20T19:00:00Z"},"type":"Feature"},{"geometry":{"coordinates":[30.9405,62.6727],"type":"Point"},"properties":{"doseRate":0.079,"id":"103348","site":"Ilomantsi","timestamp":"2024-04-20T19:00:00Z"},"type":"Feature"},{"geometry":{"coordinates":[30.3355,62.2271],"type":"Point"},"properties":{"doseRate":0.11,"id":"103349","site":"Tohmajärvi","timestamp":"2024-04-20T19:00:00Z"},"type":"Feature"},{"geometry":{"coordinates":[29.8589,62.7577],"type":"Point"},"properties":{"doseRate":0.106,"id":"103350","site":"Kontiolahti","timestamp":"2024-04-20T19:00:00Z"},"type":"Feature"},{"geometry":{"coordinates":[30.0073,63.3217],"type":"Point"},"properties":{"doseRate":0.068,"id":"103353","site":"Lieksa","timestamp":"2024-04-20T19:00:00Z"},"type":"Feature"},{"geometry":{"coordinates":[29.2561,63.2401],"type":"Point"},"properties":{"doseRate":0.11,"id":"103354","site":"Juuka","timestamp":"2024-04-20T19:00:00Z"},"type":"Feature"},{"geometry":{"coordinates":[28.8175,63.6784],"type":"Point"},"properties":{"doseRate":0.107,"id":"103355","site":"Valtimo","timestamp":"2024-04-20T19:00:00Z"},"type":"Feature"},{"geometry":{"coordinates":[27.1942,63.5713],"type":"Point"},"properties":{"doseRate":0.141,"id":"103356","site":"Iisalmi","timestamp":"2024-04-20T19:00:00Z"},"type":"Feature"},{"geometry":{"coordinates":[26.5963,63.6472],"type":"Point"},"properties":{"doseRate":0.091,"id":"103357","site":"Kiuruvesi","timestamp":"2024-04-20T19:00:00Z"},"type":"Feature"},{"geometry":{"coordinates":[27.3995,63.3707],"type":"Point"},"properties":{"doseRate":0.058,"id":"103358","site":"Lapinlahti","timestamp":"2024-04-20T19:00:00Z"},"type":"Feature"},{"geometry":{"coordinates":[26.771,63.2333],"type":"Point"},"properties":{"doseRate":0.087,"id":"103359","site":"Pielavesi","timestamp":"2024-04-20T19:00:00Z"},"type":"Feature"},{"geometry":{"coordinates":[27.0121,63.7497],"type":"Point"},"properties":{"doseRate":0.084,"id":"103360","site":"Vieremä","timestamp":"2024-04-20T19:00:00Z"},"type":"Feature"},{"geometry":{"coordinates":[25.4951,65.0097],"type":"Point"},"properties":{"doseRate":0.136,"id":"103362","site":"Oulu Raksila","timestamp":"2024-04-20T19:00:00Z"},"type":"Feature"},{"geometry":{"coordinates":[26.8376,64.5585],"type":"Point"},"properties":{"doseRate":0.124,"id":"103363","site":"Vaala","timestamp":"2024-04-20T19:00:00Z"},"type":"Feature"},{"geometry":{"coordinates":[24.7345,65.0154],"type":"Point"},"properties":{"doseRate":0.112,"id":"103366","site":"Hailuoto","timestamp":"2024-04-20T19:00:00Z"},"type":"Feature"},{"geometry":{"coordinates":[25.4113,64.8074],"type":"Point"},"properties":{"doseRate":0.085,"id":"103368","site":"Liminka","timestamp":"2024-04-20T19:00:00Z"},"type":"Feature"},{"geometry":{"coordinates":[25.475,65.016],"type":"Point"},"properties":{"doseRate":0.082,"id":"103369","site":"Oulu","timestamp":"2024-04-20T19:00:00Z"},"type":"Feature"},{"geometry":{"coordinates":[24.4895,64.6736],"type":"Point"},"properties":{"doseRate":0.092,"id":"103370","site":"Raahe","timestamp":"2024-04-20T19:00:00Z"},"type":"Feature"},{"geometry":{"coordinates":[24.9903,64.4847],"type":"Point"},"properties":{"doseRate":0.077,"id":"103371","site":"Vihanti","timestamp":"2024-04-20T19:00:00Z"},"type":"Feature"},{"geometry":{"coordinates":[25.3649,64.1455],"type":"Point"},"properties":{"doseRate":0.111,"id":"103374","site":"Haapavesi","timestamp":"2024-04-20T19:00:00Z"},"type":"Feature"},{"geometry":{"coordinates":[26.2881,64.3528],"type":"Point"},"properties":{"doseRate":0.099,"id":"103378","site":"Kestilä","timestamp":"2024-04-20T19:00:00Z"},"type":"Feature"},{"geometry":{"coordinates":[27.7255,64.217],"type":"Point"},"properties":{"doseRate":0.139,"id":"103379","site":"Kajaani","timestamp":"2024-04-20T19:00:00Z"},"type":"Feature"},{"geometry":{"coordinates":[28.9173,64.8818],"type":"Point"},"properties":{"doseRate":0.07,"id":"103384","site":"Suomussalmi","timestamp":"2024-04-20T19:00:00Z"},"type":"Feature"},{"geometry":{"coordinates":[29.4611,65.219],"type":"Point"},"properties":{"doseRate":0.055,"id":"103385","site":"Juntusranta","timestamp":"2024-04-20T19:00:00Z"},"type":"Feature"},{"geometry":{"coordinates":[27.6747,64.868],"type":"Point"},"properties":{"doseRate":0.122,"id":"103386","site":"Puolanka","timestamp":"2024-04-20T19:00:00Z"},"type":"Feature"},{"geometry":{"coordinates":[29.9663,64.5418],"type":"Point"},"properties":{"doseRate":0.061,"id":"103387","site":"Vartius","timestamp":"2024-04-20T19:00:00Z"},"type":"Feature"},{"geometry":{"coordinates":[29.1721,65.9684],"type":"Point"},"properties":{"doseRate":0.08,"id":"103388","site":"Kuusamo","timestamp":"2024-04-20T19:00:00Z"},"type":"Feature"},{"geometry":{"coordinates":[26.9988,65.3614],"type":"Point"},"properties":{"doseRate":0.095,"id":"103389","site":"Pudasjärvi","timestamp":"2024-04-20T19:00:00Z"},"type":"Feature"},{"geometry":{"coordinates":[27.7159,65.6421],"type":"Point"},"properties":{"doseRate":0.061,"id":"103390","site":"Syöte","timestamp":"2024-04-20T19:00:00Z"},"type":"Feature"},{"geometry":{"coordinates":[30.0976,65.799],"type":"Point"},"properties":{"doseRate":0.072,"id":"103392","site":"Kortesalmi","timestamp":"2024-04-20T19:00:00Z"},"type":"Feature"},{"geometry":{"coordinates":[26.8838,66.3406],"type":"Point"},"properties":{"doseRate":0.065,"id":"103397","site":"Pekkala","timestamp":"2024-04-20T19:00:00Z"},"type":"Feature"},{"geometry":{"coordinates":[24.8194,66.094],"type":"Point"},"properties":{"doseRate":0.052,"id":"103398","site":"Tervola","timestamp":"2024-04-20T19:00:00Z"},"type":"Feature"},{"geometry":{"coordinates":[24.1747,65.8472],"type":"Point"},"properties":{"doseRate":0.088,"id":"103399","site":"Tornio","timestamp":"2024-04-20T19:00:00Z"},"type":"Feature"},{"geometry":{"coordinates":[24.589,65.7425],"type":"Point"},"properties":{"doseRate":0.064,"id":"103400","site":"Kemi","timestamp":"2024-04-20T19:00:00Z"},"type":"Feature"},{"geometry":{"coordinates":[27.3892,66.7249],"type":"Point"},"properties":{"doseRate":0.079,"id":"103401","site":"Kemijärvi","timestamp":"2024-04-20T19:00:00Z"},"type":"Feature"},{"geometry":{"coordinates":[28.6727,66.8338],"type":"Point"},"properties":{"doseRate":0.068,"id":"103402","site":"Salla","timestamp":"2024-04-20T19:00:00Z"},"type":"Feature"},{"geometry":{"coordinates":[27.5157,67.1074],"type":"Point"},"properties":{"doseRate":0.064,"id":"103403","site":"Pelkosenniemi","timestamp":"2024-04-20T19:00:00Z"},"type":"Feature"},{"geometry":{"coordinates":[26.6065,67.4213],"type":"Point"},"properties":{"doseRate":0.068,"id":"103407","site":"Sodankylä","timestamp":"2024-04-20T19:00:00Z"},"type":"Feature"},{"geometry":{"coordinates":[27.1202,68.1017],"type":"Point"},"properties":{"doseRate":0.058,"id":"103408","site":"Vuotso","timestamp":"2024-04-20T19:00:00Z"},"type":"Feature"},{"geometry":{"coordinates":[24.8994,67.6595],"type":"Point"},"properties":{"doseRate":0.058,"id":"103409","site":"Kittilä","timestamp":"2024-04-20T19:00:00Z"},"type":"Feature"},{"geometry":{"coordinates":[23.9629,66.7728],"type":"Point"},"properties":{"doseRate":0.078,"id":"103410","site":"Pello","timestamp":"2024-04-20T19:00:00Z"},"type":"Feature"},{"geometry":{"coordinates":[23.6917,66.3392],"type":"Point"},"properties":{"doseRate":0.077,"id":"103412","site":"Ylitornio","timestamp":"2024-04-20T19:00:00Z"},"type":"Feature"},{"geometry":{"coordinates":[23.5992,68.3882],"type":"Point"},"properties":{"doseRate":0.068,"id":"103414","site":"Enontekiö","timestamp":"2024-04-20T19:00:00Z"},"type":"Feature"},{"geometry":{"coordinates":[22.509,68.4425],"type":"Point"},"properties":{"doseRate":0.079,"id":"103415","site":"Karesuvanto","timestamp":"2024-04-20T19:00:00Z"},"type":"Feature"},{"geometry":{"coordinates":[28.4394,68.9013],"type":"Point"},"properties":{"doseRate":0.066,"id":"103419","site":"Virtaniemi","timestamp":"2024-04-20T19:00:00Z"},"type":"Feature"},{"geometry":{"coordinates":[27.2407,69.0828],"type":"Point"},"properties":{"doseRate":0.052,"id":"103424","site":"Kaamanen","timestamp":"2024-04-20T19:00:00Z"},"type":"Feature"},{"geometry":{"coordinates":[28.3179,68.4717],"type":"Point"},"properties":{"doseRate":0.068,"id":"103425","site":"Raja-Jooseppi","timestamp":"2024-04-20T19:00:00Z"},"type":"Feature"},{"geometry":{"coordinates":[26.2027,68.4678],"type":"Point"},"properties":{"doseRate":0.066,"id":"103426","site":"Litmurivaara","timestamp":"2024-04-20T19:00:00Z"},"type":"Feature"},{"geometry":{"coordinates":[27.8682,70.0821],"type":"Point"},"properties":{"doseRate":0.055,"id":"103427","site":"Nuorgam","timestamp":"2024-04-20T19:00:00Z"},"type":"Feature"},{"geometry":{"coordinates":[26.6297,67.367],"type":"Point"},"properties":{"doseRate":0.071,"id":"104795","site":"Sodankylä IL","timestamp":"2024-04-20T19:00:00Z"},"type":"Feature"},{"geometry":{"coordinates":[27.7057,64.2021],"type":"Point"},"properties":{"doseRate":0.077,"id":"106433","site":"Kainuun prikaati","timestamp":"2024-04-20T19:00:00Z"},"type":"Feature"},{"geometry":{"coordinates":[24.2595,64.4657],"type":"Point"},"properties":{"doseRate":0.138,"id":"106801","site":"Pyhäjoki","timestamp":"2024-04-20T19:00:00Z"},"type":"Feature"}],"name":"stuk_open_data_dose_rates","type":"FeatureCollection"}