{"crs":{"properties":{"name":"urn:ogc:def:crs:OGC:1.3:CRS84"},"type":"name"},"features":[{"geometry":{"coordinates":[24.9903,60.1464],"type":"Point"},"properties":{"doseRate":0.171,"id":"103171","site":"Helsinki Suomenlinna","timestamp":"2025-11-29T10:50:00Z"},"type":"Feature"},{"geometry":{"coordinates":[26.2241,60.4547],"type":"Point"},"properties":{"doseRate":0.171,"id":"103181","site":"Loviisa","timestamp":"2025-11-29T10:50:00Z"},"type":"Feature"},{"geometry":{"coordinates":[26.2034,60.627],"type":"Point"},"properties":{"doseRate":0.17,"id":"103184","site":"Lapinjärvi","timestamp":"2025-11-29T10:50:00Z"},"type":"Feature"},{"geometry":{"coordinates":[25.6917,61.5066],"type":"Point"},"properties":{"doseRate":0.118,"id":"103187","site":"Sysmä","timestamp":"2025-11-29T10:50:00Z"},"type":"Feature"},{"geometry":{"coordinates":[23.4663,59.9819],"type":"Point"},"properties":{"doseRate":0.115,"id":"103188","site":"Tammisaari","timestamp":"2025-11-29T10:50:00Z"},"type":"Feature"},{"geometry":{"coordinates":[22.994,59.8364],"type":"Point"},"properties":{"doseRate":0.125,"id":"103189","site":"Hanko","timestamp":"2025-11-29T10:50:00Z"},"type":"Feature"},{"geometry":{"coordinates":[23.6821,60.0706],"type":"Point"},"properties":{"doseRate":0.125,"id":"103190","site":"Karjaa","timestamp":"2025-11-29T10:50:00Z"},"type":"Feature"},{"geometry":{"coordinates":[23.5721,59.822],"type":"Point"},"properties":{"doseRate":0.129,"id":"103192","site":"Jussarö","timestamp":"2025-11-29T10:50:00Z"},"type":"Feature"},{"geometry":{"coordinates":[24.6681,60.1462],"type":"Point"},"properties":{"doseRate":0.112,"id":"103195","site":"Espoonlahti","timestamp":"2025-11-29T10:50:00Z"},"type":"Feature"},{"geometry":{"coordinates":[25.6087,60.3918],"type":"Point"},"properties":{"doseRate":0.142,"id":"103198","site":"Porvoo","timestamp":"2025-11-29T10:50:00Z"},"type":"Feature"},{"geometry":{"coordinates":[23.6149,60.8153],"type":"Point"},"properties":{"doseRate":0.122,"id":"103200","site":"Forssa","timestamp":"2025-11-29T10:50:00Z"},"type":"Feature"},{"geometry":{"coordinates":[25.9712,60.9331],"type":"Point"},"properties":{"doseRate":0.156,"id":"103211","site":"Nastola","timestamp":"2025-11-29T10:50:00Z"},"type":"Feature"},{"geometry":{"coordinates":[21.696,60.8826],"type":"Point"},"properties":{"doseRate":0.119,"id":"103217","site":"Laitila","timestamp":"2025-11-29T10:50:00Z"},"type":"Feature"},{"geometry":{"coordinates":[23.1301,60.3964],"type":"Point"},"properties":{"doseRate":0.117,"id":"103220","site":"Salo","timestamp":"2025-11-29T10:50:00Z"},"type":"Feature"},{"geometry":{"coordinates":[21.3609,60.2212],"type":"Point"},"properties":{"doseRate":0.14,"id":"103223","site":"Houtskari","timestamp":"2025-11-29T10:50:00Z"},"type":"Feature"},{"geometry":{"coordinates":[22.9252,61.329],"type":"Point"},"properties":{"doseRate":0.121,"id":"103235","site":"Vammala","timestamp":"2025-11-29T10:50:00Z"},"type":"Feature"},{"geometry":{"coordinates":[23.9906,61.26],"type":"Point"},"properties":{"doseRate":0.132,"id":"103239","site":"Valkeakoski","timestamp":"2025-11-29T10:50:00Z"},"type":"Feature"},{"geometry":{"coordinates":[23.618,61.0694],"type":"Point"},"properties":{"doseRate":0.113,"id":"103240","site":"Urjala","timestamp":"2025-11-29T10:50:00Z"},"type":"Feature"},{"geometry":{"coordinates":[26.4345,62.3913],"type":"Point"},"properties":{"doseRate":0.098,"id":"103256","site":"Hankasalmi","timestamp":"2025-11-29T10:50:00Z"},"type":"Feature"},{"geometry":{"coordinates":[25.1715,62.2638],"type":"Point"},"properties":{"doseRate":0.108,"id":"103257","site":"Petäjävesi","timestamp":"2025-11-29T10:50:00Z"},"type":"Feature"},{"geometry":{"coordinates":[26.7037,60.8791],"type":"Point"},"properties":{"doseRate":0.19,"id":"103266","site":"Kouvola","timestamp":"2025-11-29T10:50:00Z"},"type":"Feature"},{"geometry":{"coordinates":[26.9175,60.4852],"type":"Point"},"properties":{"doseRate":0.251,"id":"103271","site":"Kotka","timestamp":"2025-11-29T10:50:00Z"},"type":"Feature"},{"geometry":{"coordinates":[27.7027,60.5833],"type":"Point"},"properties":{"doseRate":0.212,"id":"103275","site":"Virolahti","timestamp":"2025-11-29T10:50:00Z"},"type":"Feature"},{"geometry":{"coordinates":[27.4606,60.5168],"type":"Point"},"properties":{"doseRate":0.174,"id":"103277","site":"Klamila","timestamp":"2025-11-29T10:50:00Z"},"type":"Feature"},{"geometry":{"coordinates":[28.2088,61.0582],"type":"Point"},"properties":{"doseRate":0.121,"id":"103280","site":"Lappeenranta","timestamp":"2025-11-29T10:50:00Z"},"type":"Feature"},{"geometry":{"coordinates":[28.529,60.9594],"type":"Point"},"properties":{"doseRate":0.167,"id":"103283","site":"Nuijamaa","timestamp":"2025-11-29T10:50:00Z"},"type":"Feature"},{"geometry":{"coordinates":[27.9994,60.7992],"type":"Point"},"properties":{"doseRate":0.147,"id":"103284","site":"Ylämaa","timestamp":"2025-11-29T10:50:00Z"},"type":"Feature"},{"geometry":{"coordinates":[28.8027,61.2128],"type":"Point"},"properties":{"doseRate":0.153,"id":"103287","site":"Imatra","timestamp":"2025-11-29T10:50:00Z"},"type":"Feature"},{"geometry":{"coordinates":[27.8537,61.8974],"type":"Point"},"properties":{"doseRate":0.119,"id":"103292","site":"Juva","timestamp":"2025-11-29T10:50:00Z"},"type":"Feature"},{"geometry":{"coordinates":[26.645,61.9874],"type":"Point"},"properties":{"doseRate":0.107,"id":"103293","site":"Kangasniemi","timestamp":"2025-11-29T10:50:00Z"},"type":"Feature"},{"geometry":{"coordinates":[29.2059,62.1717],"type":"Point"},"properties":{"doseRate":0.11,"id":"103302","site":"Savonranta","timestamp":"2025-11-29T10:50:00Z"},"type":"Feature"},{"geometry":{"coordinates":[22.8463,63.2478],"type":"Point"},"properties":{"doseRate":0.122,"id":"103319","site":"Alahärmä","timestamp":"2025-11-29T10:50:00Z"},"type":"Feature"},{"geometry":{"coordinates":[23.7132,63.5533],"type":"Point"},"properties":{"doseRate":0.127,"id":"103324","site":"Kaustinen","timestamp":"2025-11-29T10:50:00Z"},"type":"Feature"},{"geometry":{"coordinates":[26.9686,62.8969],"type":"Point"},"properties":{"doseRate":0.092,"id":"103329","site":"Karttula","timestamp":"2025-11-29T10:50:00Z"},"type":"Feature"},{"geometry":{"coordinates":[28.3086,63.4862],"type":"Point"},"properties":{"doseRate":0.066,"id":"103331","site":"Rautavaara","timestamp":"2025-11-29T10:50:00Z"},"type":"Feature"},{"geometry":{"coordinates":[28.0606,63.2144],"type":"Point"},"properties":{"doseRate":0.072,"id":"103332","site":"Nilsiä","timestamp":"2025-11-29T10:50:00Z"},"type":"Feature"},{"geometry":{"coordinates":[27.7914,62.4934],"type":"Point"},"properties":{"doseRate":0.107,"id":"103335","site":"Leppävirta","timestamp":"2025-11-29T10:50:00Z"},"type":"Feature"},{"geometry":{"coordinates":[30.1523,62.8006],"type":"Point"},"properties":{"doseRate":0.097,"id":"103339","site":"Eno","timestamp":"2025-11-29T10:50:00Z"},"type":"Feature"},{"geometry":{"coordinates":[29.0293,62.7247],"type":"Point"},"properties":{"doseRate":0.104,"id":"103341","site":"Outokumpu","timestamp":"2025-11-29T10:50:00Z"},"type":"Feature"},{"geometry":{"coordinates":[30.9405,62.6727],"type":"Point"},"properties":{"doseRate":0.096,"id":"103348","site":"Ilomantsi","timestamp":"2025-11-29T10:50:00Z"},"type":"Feature"},{"geometry":{"coordinates":[30.0073,63.3217],"type":"Point"},"properties":{"doseRate":0.091,"id":"103353","site":"Lieksa","timestamp":"2025-11-29T10:50:00Z"},"type":"Feature"},{"geometry":{"coordinates":[26.5963,63.6472],"type":"Point"},"properties":{"doseRate":0.104,"id":"103357","site":"Kiuruvesi","timestamp":"2025-11-29T10:50:00Z"},"type":"Feature"},{"geometry":{"coordinates":[26.771,63.2333],"type":"Point"},"properties":{"doseRate":0.098,"id":"103359","site":"Pielavesi","timestamp":"2025-11-29T10:50:00Z"},"type":"Feature"},{"geometry":{"coordinates":[27.0121,63.7497],"type":"Point"},"properties":{"doseRate":0.094,"id":"103360","site":"Vieremä","timestamp":"2025-11-29T10:50:00Z"},"type":"Feature"},{"geometry":{"coordinates":[27.5267,63.6736],"type":"Point"},"properties":{"doseRate":0.094,"id":"103361","site":"Sonkajärvi","timestamp":"2025-11-29T10:50:00Z"},"type":"Feature"},{"geometry":{"coordinates":[26.8376,64.5585],"type":"Point"},"properties":{"doseRate":0.138,"id":"103363","site":"Vaala","timestamp":"2025-11-29T10:50:00Z"},"type":"Feature"},{"geometry":{"coordinates":[25.475,65.016],"type":"Point"},"properties":{"doseRate":0.088,"id":"103369","site":"Oulu","timestamp":"2025-11-29T10:50:00Z"},"type":"Feature"},{"geometry":{"coordinates":[24.5436,64.0825],"type":"Point"},"properties":{"doseRate":0.09,"id":"103372","site":"Ylivieska","timestamp":"2025-11-29T10:50:00Z"},"type":"Feature"},{"geometry":{"coordinates":[25.3649,64.1455],"type":"Point"},"properties":{"doseRate":0.125,"id":"103374","site":"Haapavesi","timestamp":"2025-11-29T10:50:00Z"},"type":"Feature"},{"geometry":{"coordinates":[25.3301,63.7546],"type":"Point"},"properties":{"doseRate":0.089,"id":"103375","site":"Haapajärvi","timestamp":"2025-11-29T10:50:00Z"},"type":"Feature"},{"geometry":{"coordinates":[26.2881,64.3528],"type":"Point"},"properties":{"doseRate":0.111,"id":"103378","site":"Kestilä","timestamp":"2025-11-29T10:50:00Z"},"type":"Feature"},{"geometry":{"coordinates":[28.9173,64.8818],"type":"Point"},"properties":{"doseRate":0.078,"id":"103384","site":"Suomussalmi","timestamp":"2025-11-29T10:50:00Z"},"type":"Feature"},{"geometry":{"coordinates":[27.6747,64.868],"type":"Point"},"properties":{"doseRate":0.131,"id":"103386","site":"Puolanka","timestamp":"2025-11-29T10:50:00Z"},"type":"Feature"},{"geometry":{"coordinates":[29.9663,64.5418],"type":"Point"},"properties":{"doseRate":0.074,"id":"103387","site":"Vartius","timestamp":"2025-11-29T10:50:00Z"},"type":"Feature"},{"geometry":{"coordinates":[29.1721,65.9684],"type":"Point"},"properties":{"doseRate":0.08,"id":"103388","site":"Kuusamo","timestamp":"2025-11-29T10:50:00Z"},"type":"Feature"},{"geometry":{"coordinates":[28.1684,66.1101],"type":"Point"},"properties":{"doseRate":0.105,"id":"103394","site":"Posio","timestamp":"2025-11-29T10:50:00Z"},"type":"Feature"},{"geometry":{"coordinates":[24.1747,65.8472],"type":"Point"},"properties":{"doseRate":0.104,"id":"103399","site":"Tornio","timestamp":"2025-11-29T10:50:00Z"},"type":"Feature"},{"geometry":{"coordinates":[28.6727,66.8338],"type":"Point"},"properties":{"doseRate":0.082,"id":"103402","site":"Salla","timestamp":"2025-11-29T10:50:00Z"},"type":"Feature"},{"geometry":{"coordinates":[25.8446,69.3997],"type":"Point"},"properties":{"doseRate":0.076,"id":"103422","site":"Karigasniemi","timestamp":"2025-11-29T10:50:00Z"},"type":"Feature"},{"geometry":{"coordinates":[28.3179,68.4717],"type":"Point"},"properties":{"doseRate":0.091,"id":"103425","site":"Raja-Jooseppi","timestamp":"2025-11-29T10:50:00Z"},"type":"Feature"},{"geometry":{"coordinates":[27.8682,70.0821],"type":"Point"},"properties":{"doseRate":0.079,"id":"103427","site":"Nuorgam","timestamp":"2025-11-29T10:50:00Z"},"type":"Feature"},{"geometry":{"coordinates":[27.7057,64.2021],"type":"Point"},"properties":{"doseRate":0.093,"id":"106433","site":"Kainuun prikaati","timestamp":"2025-11-29T10:50:00Z"},"type":"Feature"},{"geometry":{"coordinates":[25.0535,60.2904],"type":"Point"},"properties":{"doseRate":0.155,"id":"108122","site":"Vantaa STUK","timestamp":"2025-11-29T10:50:00Z"},"type":"Feature"}],"name":"stuk_open_data_dose_rates","type":"FeatureCollection"}