{"crs":{"properties":{"name":"urn:ogc:def:crs:OGC:1.3:CRS84"},"type":"name"},"features":[{"geometry":{"coordinates":[25.1788,60.2229],"type":"Point"},"properties":{"doseRate":0.118,"id":"103170","site":"Helsinki Vuosaaren Satama","timestamp":"2025-11-29T11:00:00Z"},"type":"Feature"},{"geometry":{"coordinates":[24.9322,60.1721],"type":"Point"},"properties":{"doseRate":0.129,"id":"103174","site":"Helsinki Töölö","timestamp":"2025-11-29T11:00:00Z"},"type":"Feature"},{"geometry":{"coordinates":[24.4466,60.1105],"type":"Point"},"properties":{"doseRate":0.164,"id":"103175","site":"Kirkkonummi","timestamp":"2025-11-29T11:00:00Z"},"type":"Feature"},{"geometry":{"coordinates":[24.9612,60.204],"type":"Point"},"properties":{"doseRate":0.133,"id":"103177","site":"Helsinki Kumpula","timestamp":"2025-11-29T11:00:00Z"},"type":"Feature"},{"geometry":{"coordinates":[26.2241,60.4547],"type":"Point"},"properties":{"doseRate":0.175,"id":"103181","site":"Loviisa","timestamp":"2025-11-29T11:00:00Z"},"type":"Feature"},{"geometry":{"coordinates":[26.459,60.523],"type":"Point"},"properties":{"doseRate":0.209,"id":"103183","site":"Ruotsinpyhtää","timestamp":"2025-11-29T11:00:00Z"},"type":"Feature"},{"geometry":{"coordinates":[26.2034,60.627],"type":"Point"},"properties":{"doseRate":0.161,"id":"103184","site":"Lapinjärvi","timestamp":"2025-11-29T11:00:00Z"},"type":"Feature"},{"geometry":{"coordinates":[26.4444,60.2749],"type":"Point"},"properties":{"doseRate":0.129,"id":"103185","site":"Orrengrund","timestamp":"2025-11-29T11:00:00Z"},"type":"Feature"},{"geometry":{"coordinates":[23.4663,59.9819],"type":"Point"},"properties":{"doseRate":0.116,"id":"103188","site":"Tammisaari","timestamp":"2025-11-29T11:00:00Z"},"type":"Feature"},{"geometry":{"coordinates":[22.994,59.8364],"type":"Point"},"properties":{"doseRate":0.129,"id":"103189","site":"Hanko","timestamp":"2025-11-29T11:00:00Z"},"type":"Feature"},{"geometry":{"coordinates":[23.6821,60.0706],"type":"Point"},"properties":{"doseRate":0.122,"id":"103190","site":"Karjaa","timestamp":"2025-11-29T11:00:00Z"},"type":"Feature"},{"geometry":{"coordinates":[23.5721,59.822],"type":"Point"},"properties":{"doseRate":0.131,"id":"103192","site":"Jussarö","timestamp":"2025-11-29T11:00:00Z"},"type":"Feature"},{"geometry":{"coordinates":[24.6681,60.1462],"type":"Point"},"properties":{"doseRate":0.112,"id":"103195","site":"Espoonlahti","timestamp":"2025-11-29T11:00:00Z"},"type":"Feature"},{"geometry":{"coordinates":[25.6087,60.3918],"type":"Point"},"properties":{"doseRate":0.14,"id":"103198","site":"Porvoo","timestamp":"2025-11-29T11:00:00Z"},"type":"Feature"},{"geometry":{"coordinates":[23.6149,60.8153],"type":"Point"},"properties":{"doseRate":0.119,"id":"103200","site":"Forssa","timestamp":"2025-11-29T11:00:00Z"},"type":"Feature"},{"geometry":{"coordinates":[25.9712,60.9331],"type":"Point"},"properties":{"doseRate":0.16,"id":"103211","site":"Nastola","timestamp":"2025-11-29T11:00:00Z"},"type":"Feature"},{"geometry":{"coordinates":[21.4143,60.8061],"type":"Point"},"properties":{"doseRate":0.124,"id":"103216","site":"Uusikaupunki","timestamp":"2025-11-29T11:00:00Z"},"type":"Feature"},{"geometry":{"coordinates":[21.696,60.8826],"type":"Point"},"properties":{"doseRate":0.123,"id":"103217","site":"Laitila","timestamp":"2025-11-29T11:00:00Z"},"type":"Feature"},{"geometry":{"coordinates":[19.5543,60.2243],"type":"Point"},"properties":{"doseRate":0.122,"id":"103228","site":"Eckerö","timestamp":"2025-11-29T11:00:00Z"},"type":"Feature"},{"geometry":{"coordinates":[24.3508,61.6751],"type":"Point"},"properties":{"doseRate":0.12,"id":"103231","site":"Orivesi","timestamp":"2025-11-29T11:00:00Z"},"type":"Feature"},{"geometry":{"coordinates":[22.9252,61.329],"type":"Point"},"properties":{"doseRate":0.127,"id":"103235","site":"Vammala","timestamp":"2025-11-29T11:00:00Z"},"type":"Feature"},{"geometry":{"coordinates":[23.9906,61.26],"type":"Point"},"properties":{"doseRate":0.133,"id":"103239","site":"Valkeakoski","timestamp":"2025-11-29T11:00:00Z"},"type":"Feature"},{"geometry":{"coordinates":[23.618,61.0694],"type":"Point"},"properties":{"doseRate":0.113,"id":"103240","site":"Urjala","timestamp":"2025-11-29T11:00:00Z"},"type":"Feature"},{"geometry":{"coordinates":[21.4996,61.1232],"type":"Point"},"properties":{"doseRate":0.102,"id":"103241","site":"Rauma","timestamp":"2025-11-29T11:00:00Z"},"type":"Feature"},{"geometry":{"coordinates":[21.738,61.2051],"type":"Point"},"properties":{"doseRate":0.154,"id":"103242","site":"Eurajoki","timestamp":"2025-11-29T11:00:00Z"},"type":"Feature"},{"geometry":{"coordinates":[21.8422,61.1028],"type":"Point"},"properties":{"doseRate":0.146,"id":"103243","site":"Lappi TL","timestamp":"2025-11-29T11:00:00Z"},"type":"Feature"},{"geometry":{"coordinates":[21.5828,61.2751],"type":"Point"},"properties":{"doseRate":0.149,"id":"103244","site":"Kuivalahti","timestamp":"2025-11-29T11:00:00Z"},"type":"Feature"},{"geometry":{"coordinates":[21.6224,61.3626],"type":"Point"},"properties":{"doseRate":0.134,"id":"103246","site":"Luvia","timestamp":"2025-11-29T11:00:00Z"},"type":"Feature"},{"geometry":{"coordinates":[22.1441,61.3067],"type":"Point"},"properties":{"doseRate":0.123,"id":"103247","site":"Harjavalta","timestamp":"2025-11-29T11:00:00Z"},"type":"Feature"},{"geometry":{"coordinates":[22.0205,61.4566],"type":"Point"},"properties":{"doseRate":0.108,"id":"103249","site":"Ulvila","timestamp":"2025-11-29T11:00:00Z"},"type":"Feature"},{"geometry":{"coordinates":[22.0063,61.6934],"type":"Point"},"properties":{"doseRate":0.112,"id":"103250","site":"Pomarkku","timestamp":"2025-11-29T11:00:00Z"},"type":"Feature"},{"geometry":{"coordinates":[21.5002,61.864],"type":"Point"},"properties":{"doseRate":0.113,"id":"103253","site":"Merikarvia","timestamp":"2025-11-29T11:00:00Z"},"type":"Feature"},{"geometry":{"coordinates":[26.7037,60.8791],"type":"Point"},"properties":{"doseRate":0.185,"id":"103266","site":"Kouvola","timestamp":"2025-11-29T11:00:00Z"},"type":"Feature"},{"geometry":{"coordinates":[26.9175,60.4852],"type":"Point"},"properties":{"doseRate":0.258,"id":"103271","site":"Kotka","timestamp":"2025-11-29T11:00:00Z"},"type":"Feature"},{"geometry":{"coordinates":[27.7027,60.5833],"type":"Point"},"properties":{"doseRate":0.213,"id":"103275","site":"Virolahti","timestamp":"2025-11-29T11:00:00Z"},"type":"Feature"},{"geometry":{"coordinates":[27.1847,60.2872],"type":"Point"},"properties":{"doseRate":0.182,"id":"103276","site":"Haapasaari","timestamp":"2025-11-29T11:00:00Z"},"type":"Feature"},{"geometry":{"coordinates":[27.4606,60.5168],"type":"Point"},"properties":{"doseRate":0.174,"id":"103277","site":"Klamila","timestamp":"2025-11-29T11:00:00Z"},"type":"Feature"},{"geometry":{"coordinates":[27.5563,60.9216],"type":"Point"},"properties":{"doseRate":0.18,"id":"103282","site":"Luumäki","timestamp":"2025-11-29T11:00:00Z"},"type":"Feature"},{"geometry":{"coordinates":[28.529,60.9594],"type":"Point"},"properties":{"doseRate":0.163,"id":"103283","site":"Nuijamaa","timestamp":"2025-11-29T11:00:00Z"},"type":"Feature"},{"geometry":{"coordinates":[27.9994,60.7992],"type":"Point"},"properties":{"doseRate":0.151,"id":"103284","site":"Ylämaa","timestamp":"2025-11-29T11:00:00Z"},"type":"Feature"},{"geometry":{"coordinates":[28.827,61.133],"type":"Point"},"properties":{"doseRate":0.13,"id":"103286","site":"Imatra Pelkola","timestamp":"2025-11-29T11:00:00Z"},"type":"Feature"},{"geometry":{"coordinates":[29.3619,61.4351],"type":"Point"},"properties":{"doseRate":0.128,"id":"103288","site":"Rautjärvi","timestamp":"2025-11-29T11:00:00Z"},"type":"Feature"},{"geometry":{"coordinates":[27.2648,61.5115],"type":"Point"},"properties":{"doseRate":0.11,"id":"103297","site":"Ristiina","timestamp":"2025-11-29T11:00:00Z"},"type":"Feature"},{"geometry":{"coordinates":[23.1234,63.8446],"type":"Point"},"properties":{"doseRate":0.099,"id":"103323","site":"Kokkola","timestamp":"2025-11-29T11:00:00Z"},"type":"Feature"},{"geometry":{"coordinates":[29.074,63.5565],"type":"Point"},"properties":{"doseRate":0.104,"id":"103352","site":"Nurmes","timestamp":"2025-11-29T11:00:00Z"},"type":"Feature"},{"geometry":{"coordinates":[30.0073,63.3217],"type":"Point"},"properties":{"doseRate":0.095,"id":"103353","site":"Lieksa","timestamp":"2025-11-29T11:00:00Z"},"type":"Feature"},{"geometry":{"coordinates":[26.5963,63.6472],"type":"Point"},"properties":{"doseRate":0.106,"id":"103357","site":"Kiuruvesi","timestamp":"2025-11-29T11:00:00Z"},"type":"Feature"},{"geometry":{"coordinates":[27.0121,63.7497],"type":"Point"},"properties":{"doseRate":0.092,"id":"103360","site":"Vieremä","timestamp":"2025-11-29T11:00:00Z"},"type":"Feature"},{"geometry":{"coordinates":[27.5267,63.6736],"type":"Point"},"properties":{"doseRate":0.094,"id":"103361","site":"Sonkajärvi","timestamp":"2025-11-29T11:00:00Z"},"type":"Feature"},{"geometry":{"coordinates":[26.8376,64.5585],"type":"Point"},"properties":{"doseRate":0.14,"id":"103363","site":"Vaala","timestamp":"2025-11-29T11:00:00Z"},"type":"Feature"},{"geometry":{"coordinates":[24.9903,64.4847],"type":"Point"},"properties":{"doseRate":0.094,"id":"103371","site":"Vihanti","timestamp":"2025-11-29T11:00:00Z"},"type":"Feature"},{"geometry":{"coordinates":[24.5436,64.0825],"type":"Point"},"properties":{"doseRate":0.081,"id":"103372","site":"Ylivieska","timestamp":"2025-11-29T11:00:00Z"},"type":"Feature"},{"geometry":{"coordinates":[25.3301,63.7546],"type":"Point"},"properties":{"doseRate":0.081,"id":"103375","site":"Haapajärvi","timestamp":"2025-11-29T11:00:00Z"},"type":"Feature"},{"geometry":{"coordinates":[28.9173,64.8818],"type":"Point"},"properties":{"doseRate":0.083,"id":"103384","site":"Suomussalmi","timestamp":"2025-11-29T11:00:00Z"},"type":"Feature"},{"geometry":{"coordinates":[27.6747,64.868],"type":"Point"},"properties":{"doseRate":0.139,"id":"103386","site":"Puolanka","timestamp":"2025-11-29T11:00:00Z"},"type":"Feature"},{"geometry":{"coordinates":[26.9988,65.3614],"type":"Point"},"properties":{"doseRate":0.095,"id":"103389","site":"Pudasjärvi","timestamp":"2025-11-29T11:00:00Z"},"type":"Feature"},{"geometry":{"coordinates":[25.7513,66.4972],"type":"Point"},"properties":{"doseRate":0.086,"id":"103393","site":"Rovaniemi","timestamp":"2025-11-29T11:00:00Z"},"type":"Feature"},{"geometry":{"coordinates":[28.1684,66.1101],"type":"Point"},"properties":{"doseRate":0.103,"id":"103394","site":"Posio","timestamp":"2025-11-29T11:00:00Z"},"type":"Feature"},{"geometry":{"coordinates":[28.6727,66.8338],"type":"Point"},"properties":{"doseRate":0.086,"id":"103402","site":"Salla","timestamp":"2025-11-29T11:00:00Z"},"type":"Feature"},{"geometry":{"coordinates":[29.6103,67.7484],"type":"Point"},"properties":{"doseRate":0.068,"id":"103406","site":"Värriö","timestamp":"2025-11-29T11:00:00Z"},"type":"Feature"},{"geometry":{"coordinates":[26.6065,67.4213],"type":"Point"},"properties":{"doseRate":0.074,"id":"103407","site":"Sodankylä","timestamp":"2025-11-29T11:00:00Z"},"type":"Feature"},{"geometry":{"coordinates":[20.8044,69.0455],"type":"Point"},"properties":{"doseRate":0.076,"id":"103416","site":"Kilpisjärvi","timestamp":"2025-11-29T11:00:00Z"},"type":"Feature"},{"geometry":{"coordinates":[28.6022,69.5104],"type":"Point"},"properties":{"doseRate":0.079,"id":"103420","site":"Sevettijärvi","timestamp":"2025-11-29T11:00:00Z"},"type":"Feature"},{"geometry":{"coordinates":[27.0151,69.8998],"type":"Point"},"properties":{"doseRate":0.082,"id":"103421","site":"Utsjoki","timestamp":"2025-11-29T11:00:00Z"},"type":"Feature"},{"geometry":{"coordinates":[28.3179,68.4717],"type":"Point"},"properties":{"doseRate":0.09,"id":"103425","site":"Raja-Jooseppi","timestamp":"2025-11-29T11:00:00Z"},"type":"Feature"},{"geometry":{"coordinates":[27.8682,70.0821],"type":"Point"},"properties":{"doseRate":0.08,"id":"103427","site":"Nuorgam","timestamp":"2025-11-29T11:00:00Z"},"type":"Feature"},{"geometry":{"coordinates":[27.6342,62.8925],"type":"Point"},"properties":{"doseRate":0.136,"id":"104793","site":"Kuopio IL","timestamp":"2025-11-29T11:00:00Z"},"type":"Feature"},{"geometry":{"coordinates":[27.5689,68.641],"type":"Point"},"properties":{"doseRate":0.09,"id":"104794","site":"Ivalo Rv","timestamp":"2025-11-29T11:00:00Z"},"type":"Feature"},{"geometry":{"coordinates":[27.7057,64.2021],"type":"Point"},"properties":{"doseRate":0.091,"id":"106433","site":"Kainuun prikaati","timestamp":"2025-11-29T11:00:00Z"},"type":"Feature"},{"geometry":{"coordinates":[24.2595,64.4657],"type":"Point"},"properties":{"doseRate":0.137,"id":"106801","site":"Pyhäjoki","timestamp":"2025-11-29T11:00:00Z"},"type":"Feature"},{"geometry":{"coordinates":[25.0535,60.2904],"type":"Point"},"properties":{"doseRate":0.146,"id":"108122","site":"Vantaa STUK","timestamp":"2025-11-29T11:00:00Z"},"type":"Feature"}],"name":"stuk_open_data_dose_rates","type":"FeatureCollection"}