{"crs":{"properties":{"name":"urn:ogc:def:crs:OGC:1.3:CRS84"},"type":"name"},"features":[{"geometry":{"coordinates":[24.9903,60.1464],"type":"Point"},"properties":{"doseRate":0.188,"id":"103171","site":"Helsinki Suomenlinna","timestamp":"2025-11-13T09:30:00Z"},"type":"Feature"},{"geometry":{"coordinates":[24.9593,60.3079],"type":"Point"},"properties":{"doseRate":0.14,"id":"103178","site":"Vantaa","timestamp":"2025-11-13T09:30:00Z"},"type":"Feature"},{"geometry":{"coordinates":[24.8133,60.461],"type":"Point"},"properties":{"doseRate":0.137,"id":"103180","site":"Nurmijärvi","timestamp":"2025-11-13T09:30:00Z"},"type":"Feature"},{"geometry":{"coordinates":[26.2034,60.627],"type":"Point"},"properties":{"doseRate":0.164,"id":"103184","site":"Lapinjärvi","timestamp":"2025-11-13T09:30:00Z"},"type":"Feature"},{"geometry":{"coordinates":[26.0208,61.195],"type":"Point"},"properties":{"doseRate":0.117,"id":"103186","site":"Heinola","timestamp":"2025-11-13T09:30:00Z"},"type":"Feature"},{"geometry":{"coordinates":[25.6917,61.5066],"type":"Point"},"properties":{"doseRate":0.107,"id":"103187","site":"Sysmä","timestamp":"2025-11-13T09:30:00Z"},"type":"Feature"},{"geometry":{"coordinates":[23.4663,59.9819],"type":"Point"},"properties":{"doseRate":0.116,"id":"103188","site":"Tammisaari","timestamp":"2025-11-13T09:30:00Z"},"type":"Feature"},{"geometry":{"coordinates":[22.994,59.8364],"type":"Point"},"properties":{"doseRate":0.137,"id":"103189","site":"Hanko","timestamp":"2025-11-13T09:30:00Z"},"type":"Feature"},{"geometry":{"coordinates":[23.6821,60.0706],"type":"Point"},"properties":{"doseRate":0.118,"id":"103190","site":"Karjaa","timestamp":"2025-11-13T09:30:00Z"},"type":"Feature"},{"geometry":{"coordinates":[24.0041,60.0541],"type":"Point"},"properties":{"doseRate":0.143,"id":"103191","site":"Inkoo","timestamp":"2025-11-13T09:30:00Z"},"type":"Feature"},{"geometry":{"coordinates":[23.5721,59.822],"type":"Point"},"properties":{"doseRate":0.13,"id":"103192","site":"Jussarö","timestamp":"2025-11-13T09:30:00Z"},"type":"Feature"},{"geometry":{"coordinates":[24.0237,60.2233],"type":"Point"},"properties":{"doseRate":0.119,"id":"103193","site":"Lohja","timestamp":"2025-11-13T09:30:00Z"},"type":"Feature"},{"geometry":{"coordinates":[24.6681,60.1462],"type":"Point"},"properties":{"doseRate":0.12,"id":"103195","site":"Espoonlahti","timestamp":"2025-11-13T09:30:00Z"},"type":"Feature"},{"geometry":{"coordinates":[25.6087,60.3918],"type":"Point"},"properties":{"doseRate":0.14,"id":"103198","site":"Porvoo","timestamp":"2025-11-13T09:30:00Z"},"type":"Feature"},{"geometry":{"coordinates":[23.6149,60.8153],"type":"Point"},"properties":{"doseRate":0.114,"id":"103200","site":"Forssa","timestamp":"2025-11-13T09:30:00Z"},"type":"Feature"},{"geometry":{"coordinates":[25.0121,61.0743],"type":"Point"},"properties":{"doseRate":0.118,"id":"103202","site":"Lammi","timestamp":"2025-11-13T09:30:00Z"},"type":"Feature"},{"geometry":{"coordinates":[24.571,61.1681],"type":"Point"},"properties":{"doseRate":0.126,"id":"103203","site":"Hauho","timestamp":"2025-11-13T09:30:00Z"},"type":"Feature"},{"geometry":{"coordinates":[24.3022,60.8923],"type":"Point"},"properties":{"doseRate":0.117,"id":"103204","site":"Renko","timestamp":"2025-11-13T09:30:00Z"},"type":"Feature"},{"geometry":{"coordinates":[25.6722,60.9778],"type":"Point"},"properties":{"doseRate":0.117,"id":"103205","site":"Lahti","timestamp":"2025-11-13T09:30:00Z"},"type":"Feature"},{"geometry":{"coordinates":[25.261,60.8659],"type":"Point"},"properties":{"doseRate":0.152,"id":"103207","site":"Kärkölä","timestamp":"2025-11-13T09:30:00Z"},"type":"Feature"},{"geometry":{"coordinates":[26.0534,60.7455],"type":"Point"},"properties":{"doseRate":0.144,"id":"103209","site":"Artjärvi","timestamp":"2025-11-13T09:30:00Z"},"type":"Feature"},{"geometry":{"coordinates":[25.2699,61.3487],"type":"Point"},"properties":{"doseRate":0.133,"id":"103210","site":"Padasjoki","timestamp":"2025-11-13T09:30:00Z"},"type":"Feature"},{"geometry":{"coordinates":[25.9712,60.9331],"type":"Point"},"properties":{"doseRate":0.153,"id":"103211","site":"Nastola","timestamp":"2025-11-13T09:30:00Z"},"type":"Feature"},{"geometry":{"coordinates":[22.2658,60.4437],"type":"Point"},"properties":{"doseRate":0.111,"id":"103213","site":"Turku Vähäheikkilä","timestamp":"2025-11-13T09:30:00Z"},"type":"Feature"},{"geometry":{"coordinates":[23.1301,60.3964],"type":"Point"},"properties":{"doseRate":0.115,"id":"103220","site":"Salo","timestamp":"2025-11-13T09:30:00Z"},"type":"Feature"},{"geometry":{"coordinates":[21.3609,60.2212],"type":"Point"},"properties":{"doseRate":0.138,"id":"103223","site":"Houtskari","timestamp":"2025-11-13T09:30:00Z"},"type":"Feature"},{"geometry":{"coordinates":[24.7246,61.4087],"type":"Point"},"properties":{"doseRate":0.108,"id":"103230","site":"Rautajärvi","timestamp":"2025-11-13T09:30:00Z"},"type":"Feature"},{"geometry":{"coordinates":[24.3508,61.6751],"type":"Point"},"properties":{"doseRate":0.124,"id":"103231","site":"Orivesi","timestamp":"2025-11-13T09:30:00Z"},"type":"Feature"},{"geometry":{"coordinates":[23.0393,61.5069],"type":"Point"},"properties":{"doseRate":0.145,"id":"103234","site":"Mouhijärvi","timestamp":"2025-11-13T09:30:00Z"},"type":"Feature"},{"geometry":{"coordinates":[22.9252,61.329],"type":"Point"},"properties":{"doseRate":0.136,"id":"103235","site":"Vammala","timestamp":"2025-11-13T09:30:00Z"},"type":"Feature"},{"geometry":{"coordinates":[23.9906,61.26],"type":"Point"},"properties":{"doseRate":0.128,"id":"103239","site":"Valkeakoski","timestamp":"2025-11-13T09:30:00Z"},"type":"Feature"},{"geometry":{"coordinates":[23.618,61.0694],"type":"Point"},"properties":{"doseRate":0.124,"id":"103240","site":"Urjala","timestamp":"2025-11-13T09:30:00Z"},"type":"Feature"},{"geometry":{"coordinates":[25.1715,62.2638],"type":"Point"},"properties":{"doseRate":0.113,"id":"103257","site":"Petäjävesi","timestamp":"2025-11-13T09:30:00Z"},"type":"Feature"},{"geometry":{"coordinates":[24.8011,62.4146],"type":"Point"},"properties":{"doseRate":0.117,"id":"103259","site":"Multia","timestamp":"2025-11-13T09:30:00Z"},"type":"Feature"},{"geometry":{"coordinates":[25.0761,63.1207],"type":"Point"},"properties":{"doseRate":0.125,"id":"103262","site":"Kivijärvi","timestamp":"2025-11-13T09:30:00Z"},"type":"Feature"},{"geometry":{"coordinates":[25.8605,63.0876],"type":"Point"},"properties":{"doseRate":0.121,"id":"103263","site":"Viitasaari","timestamp":"2025-11-13T09:30:00Z"},"type":"Feature"},{"geometry":{"coordinates":[25.7363,62.6025],"type":"Point"},"properties":{"doseRate":0.136,"id":"103264","site":"Äänekoski","timestamp":"2025-11-13T09:30:00Z"},"type":"Feature"},{"geometry":{"coordinates":[26.7037,60.8791],"type":"Point"},"properties":{"doseRate":0.183,"id":"103266","site":"Kouvola","timestamp":"2025-11-13T09:30:00Z"},"type":"Feature"},{"geometry":{"coordinates":[26.3586,60.889],"type":"Point"},"properties":{"doseRate":0.176,"id":"103267","site":"Iitti","timestamp":"2025-11-13T09:30:00Z"},"type":"Feature"},{"geometry":{"coordinates":[26.9175,60.4852],"type":"Point"},"properties":{"doseRate":0.236,"id":"103271","site":"Kotka","timestamp":"2025-11-13T09:30:00Z"},"type":"Feature"},{"geometry":{"coordinates":[27.7027,60.5833],"type":"Point"},"properties":{"doseRate":0.202,"id":"103275","site":"Virolahti","timestamp":"2025-11-13T09:30:00Z"},"type":"Feature"},{"geometry":{"coordinates":[27.4606,60.5168],"type":"Point"},"properties":{"doseRate":0.175,"id":"103277","site":"Klamila","timestamp":"2025-11-13T09:30:00Z"},"type":"Feature"},{"geometry":{"coordinates":[28.2088,61.0582],"type":"Point"},"properties":{"doseRate":0.11,"id":"103280","site":"Lappeenranta","timestamp":"2025-11-13T09:30:00Z"},"type":"Feature"},{"geometry":{"coordinates":[28.529,60.9594],"type":"Point"},"properties":{"doseRate":0.176,"id":"103283","site":"Nuijamaa","timestamp":"2025-11-13T09:30:00Z"},"type":"Feature"},{"geometry":{"coordinates":[27.9994,60.7992],"type":"Point"},"properties":{"doseRate":0.143,"id":"103284","site":"Ylämaa","timestamp":"2025-11-13T09:30:00Z"},"type":"Feature"},{"geometry":{"coordinates":[28.8027,61.2128],"type":"Point"},"properties":{"doseRate":0.153,"id":"103287","site":"Imatra","timestamp":"2025-11-13T09:30:00Z"},"type":"Feature"},{"geometry":{"coordinates":[27.8537,61.8974],"type":"Point"},"properties":{"doseRate":0.116,"id":"103292","site":"Juva","timestamp":"2025-11-13T09:30:00Z"},"type":"Feature"},{"geometry":{"coordinates":[26.645,61.9874],"type":"Point"},"properties":{"doseRate":0.099,"id":"103293","site":"Kangasniemi","timestamp":"2025-11-13T09:30:00Z"},"type":"Feature"},{"geometry":{"coordinates":[26.4789,61.503],"type":"Point"},"properties":{"doseRate":0.121,"id":"103296","site":"Pertunmaa","timestamp":"2025-11-13T09:30:00Z"},"type":"Feature"},{"geometry":{"coordinates":[27.2648,61.5115],"type":"Point"},"properties":{"doseRate":0.098,"id":"103297","site":"Ristiina","timestamp":"2025-11-13T09:30:00Z"},"type":"Feature"},{"geometry":{"coordinates":[28.8648,61.8679],"type":"Point"},"properties":{"doseRate":0.111,"id":"103299","site":"Savonlinna","timestamp":"2025-11-13T09:30:00Z"},"type":"Feature"},{"geometry":{"coordinates":[29.3854,61.7605],"type":"Point"},"properties":{"doseRate":0.126,"id":"103300","site":"Punkaharju","timestamp":"2025-11-13T09:30:00Z"},"type":"Feature"},{"geometry":{"coordinates":[29.2812,61.9163],"type":"Point"},"properties":{"doseRate":0.11,"id":"103301","site":"Kerimäki","timestamp":"2025-11-13T09:30:00Z"},"type":"Feature"},{"geometry":{"coordinates":[21.1912,62.7846],"type":"Point"},"properties":{"doseRate":0.134,"id":"103309","site":"Korsnäs","timestamp":"2025-11-13T09:30:00Z"},"type":"Feature"},{"geometry":{"coordinates":[22.7605,62.4944],"type":"Point"},"properties":{"doseRate":0.11,"id":"103317","site":"Jalasjärvi","timestamp":"2025-11-13T09:30:00Z"},"type":"Feature"},{"geometry":{"coordinates":[22.8463,63.2478],"type":"Point"},"properties":{"doseRate":0.14,"id":"103319","site":"Alahärmä","timestamp":"2025-11-13T09:30:00Z"},"type":"Feature"},{"geometry":{"coordinates":[23.7132,63.5533],"type":"Point"},"properties":{"doseRate":0.14,"id":"103324","site":"Kaustinen","timestamp":"2025-11-13T09:30:00Z"},"type":"Feature"},{"geometry":{"coordinates":[28.4961,62.8043],"type":"Point"},"properties":{"doseRate":0.103,"id":"103330","site":"Tuusniemi","timestamp":"2025-11-13T09:30:00Z"},"type":"Feature"},{"geometry":{"coordinates":[28.3086,63.4862],"type":"Point"},"properties":{"doseRate":0.071,"id":"103331","site":"Rautavaara","timestamp":"2025-11-13T09:30:00Z"},"type":"Feature"},{"geometry":{"coordinates":[28.0606,63.2144],"type":"Point"},"properties":{"doseRate":0.075,"id":"103332","site":"Nilsiä","timestamp":"2025-11-13T09:30:00Z"},"type":"Feature"},{"geometry":{"coordinates":[27.7914,62.4934],"type":"Point"},"properties":{"doseRate":0.104,"id":"103335","site":"Leppävirta","timestamp":"2025-11-13T09:30:00Z"},"type":"Feature"},{"geometry":{"coordinates":[27.6773,63.0818],"type":"Point"},"properties":{"doseRate":0.086,"id":"103336","site":"Siilinjärvi","timestamp":"2025-11-13T09:30:00Z"},"type":"Feature"},{"geometry":{"coordinates":[30.2509,62.4946],"type":"Point"},"properties":{"doseRate":0.108,"id":"103346","site":"Kiihtelysvaara","timestamp":"2025-11-13T09:30:00Z"},"type":"Feature"},{"geometry":{"coordinates":[30.9405,62.6727],"type":"Point"},"properties":{"doseRate":0.099,"id":"103348","site":"Ilomantsi","timestamp":"2025-11-13T09:30:00Z"},"type":"Feature"},{"geometry":{"coordinates":[30.0073,63.3217],"type":"Point"},"properties":{"doseRate":0.095,"id":"103353","site":"Lieksa","timestamp":"2025-11-13T09:30:00Z"},"type":"Feature"},{"geometry":{"coordinates":[27.1942,63.5713],"type":"Point"},"properties":{"doseRate":0.146,"id":"103356","site":"Iisalmi","timestamp":"2025-11-13T09:30:00Z"},"type":"Feature"},{"geometry":{"coordinates":[26.5963,63.6472],"type":"Point"},"properties":{"doseRate":0.111,"id":"103357","site":"Kiuruvesi","timestamp":"2025-11-13T09:30:00Z"},"type":"Feature"},{"geometry":{"coordinates":[27.3995,63.3707],"type":"Point"},"properties":{"doseRate":0.068,"id":"103358","site":"Lapinlahti","timestamp":"2025-11-13T09:30:00Z"},"type":"Feature"},{"geometry":{"coordinates":[26.771,63.2333],"type":"Point"},"properties":{"doseRate":0.109,"id":"103359","site":"Pielavesi","timestamp":"2025-11-13T09:30:00Z"},"type":"Feature"},{"geometry":{"coordinates":[27.0121,63.7497],"type":"Point"},"properties":{"doseRate":0.091,"id":"103360","site":"Vieremä","timestamp":"2025-11-13T09:30:00Z"},"type":"Feature"},{"geometry":{"coordinates":[27.5267,63.6736],"type":"Point"},"properties":{"doseRate":0.093,"id":"103361","site":"Sonkajärvi","timestamp":"2025-11-13T09:30:00Z"},"type":"Feature"},{"geometry":{"coordinates":[26.8376,64.5585],"type":"Point"},"properties":{"doseRate":0.152,"id":"103363","site":"Vaala","timestamp":"2025-11-13T09:30:00Z"},"type":"Feature"},{"geometry":{"coordinates":[24.5436,64.0825],"type":"Point"},"properties":{"doseRate":0.1,"id":"103372","site":"Ylivieska","timestamp":"2025-11-13T09:30:00Z"},"type":"Feature"},{"geometry":{"coordinates":[25.3301,63.7546],"type":"Point"},"properties":{"doseRate":0.093,"id":"103375","site":"Haapajärvi","timestamp":"2025-11-13T09:30:00Z"},"type":"Feature"},{"geometry":{"coordinates":[26.2881,64.3528],"type":"Point"},"properties":{"doseRate":0.126,"id":"103378","site":"Kestilä","timestamp":"2025-11-13T09:30:00Z"},"type":"Feature"},{"geometry":{"coordinates":[28.3911,64.1328],"type":"Point"},"properties":{"doseRate":0.101,"id":"103381","site":"Sotkamo","timestamp":"2025-11-13T09:30:00Z"},"type":"Feature"},{"geometry":{"coordinates":[28.9173,64.8818],"type":"Point"},"properties":{"doseRate":0.085,"id":"103384","site":"Suomussalmi","timestamp":"2025-11-13T09:30:00Z"},"type":"Feature"},{"geometry":{"coordinates":[27.6747,64.868],"type":"Point"},"properties":{"doseRate":0.147,"id":"103386","site":"Puolanka","timestamp":"2025-11-13T09:30:00Z"},"type":"Feature"},{"geometry":{"coordinates":[25.4622,66.8603],"type":"Point"},"properties":{"doseRate":0.1,"id":"103396","site":"Patokoski","timestamp":"2025-11-13T09:30:00Z"},"type":"Feature"},{"geometry":{"coordinates":[24.1747,65.8472],"type":"Point"},"properties":{"doseRate":0.106,"id":"103399","site":"Tornio","timestamp":"2025-11-13T09:30:00Z"},"type":"Feature"},{"geometry":{"coordinates":[24.589,65.7425],"type":"Point"},"properties":{"doseRate":0.082,"id":"103400","site":"Kemi","timestamp":"2025-11-13T09:30:00Z"},"type":"Feature"},{"geometry":{"coordinates":[28.6727,66.8338],"type":"Point"},"properties":{"doseRate":0.09,"id":"103402","site":"Salla","timestamp":"2025-11-13T09:30:00Z"},"type":"Feature"},{"geometry":{"coordinates":[27.5157,67.1074],"type":"Point"},"properties":{"doseRate":0.076,"id":"103403","site":"Pelkosenniemi","timestamp":"2025-11-13T09:30:00Z"},"type":"Feature"},{"geometry":{"coordinates":[28.977,66.9448],"type":"Point"},"properties":{"doseRate":0.079,"id":"103405","site":"Kelloselkä","timestamp":"2025-11-13T09:30:00Z"},"type":"Feature"},{"geometry":{"coordinates":[24.8994,67.6595],"type":"Point"},"properties":{"doseRate":0.083,"id":"103409","site":"Kittilä","timestamp":"2025-11-13T09:30:00Z"},"type":"Feature"},{"geometry":{"coordinates":[23.6834,67.9588],"type":"Point"},"properties":{"doseRate":0.115,"id":"103413","site":"Muonio","timestamp":"2025-11-13T09:30:00Z"},"type":"Feature"},{"geometry":{"coordinates":[22.509,68.4425],"type":"Point"},"properties":{"doseRate":0.092,"id":"103415","site":"Karesuvanto","timestamp":"2025-11-13T09:30:00Z"},"type":"Feature"},{"geometry":{"coordinates":[28.6022,69.5104],"type":"Point"},"properties":{"doseRate":0.097,"id":"103420","site":"Sevettijärvi","timestamp":"2025-11-13T09:30:00Z"},"type":"Feature"},{"geometry":{"coordinates":[25.8446,69.3997],"type":"Point"},"properties":{"doseRate":0.08,"id":"103422","site":"Karigasniemi","timestamp":"2025-11-13T09:30:00Z"},"type":"Feature"},{"geometry":{"coordinates":[28.3179,68.4717],"type":"Point"},"properties":{"doseRate":0.102,"id":"103425","site":"Raja-Jooseppi","timestamp":"2025-11-13T09:30:00Z"},"type":"Feature"},{"geometry":{"coordinates":[27.8682,70.0821],"type":"Point"},"properties":{"doseRate":0.081,"id":"103427","site":"Nuorgam","timestamp":"2025-11-13T09:30:00Z"},"type":"Feature"},{"geometry":{"coordinates":[25.0535,60.2904],"type":"Point"},"properties":{"doseRate":0.146,"id":"108122","site":"Vantaa STUK","timestamp":"2025-11-13T09:30:00Z"},"type":"Feature"}],"name":"stuk_open_data_dose_rates","type":"FeatureCollection"}