{"crs":{"properties":{"name":"urn:ogc:def:crs:OGC:1.3:CRS84"},"type":"name"},"features":[{"geometry":{"coordinates":[28.82663,61.13229],"type":"Point"},"properties":{"concentration_Be-7":978.3,"concentration_Cs-137":0.6,"concentration_Pb-210":127.4,"from_timestamp":"2025-08-18T07:06:00Z","id":"103430","site":"Imatra","to_timestamp":"2025-08-26T07:13:00Z","uncertainty_Be-7-uncertainty":3.0,"uncertainty_Cs-137-uncertainty":27.0,"uncertainty_Pb-210-uncertainty":4.0},"type":"Feature"},{"geometry":{"coordinates":[27.57,68.64],"type":"Point"},"properties":{"concentration_Be-7":1566.1,"from_timestamp":"2025-08-14T08:36:00Z","id":"103431","site":"Ivalo","to_timestamp":"2025-08-21T08:05:00Z","uncertainty_Be-7-uncertainty":10.0},"type":"Feature"},{"geometry":{"coordinates":[27.63414,62.89195],"type":"Point"},"properties":{"concentration_Be-7":1446.6,"concentration_Pb-210":163.4,"from_timestamp":"2025-08-18T10:12:00Z","id":"103432","site":"Kuopio","to_timestamp":"2025-08-25T09:17:00Z","uncertainty_Be-7-uncertainty":3.0,"uncertainty_Pb-210-uncertainty":17.0},"type":"Feature"},{"geometry":{"coordinates":[25.67774,66.51285],"type":"Point"},"properties":{"concentration_Be-7":815.1,"concentration_Pb-210":97.5,"from_timestamp":"2025-08-18T09:18:00Z","id":"103433","site":"Rovaniemi","to_timestamp":"2025-08-25T08:28:00Z","uncertainty_Be-7-uncertainty":5.0,"uncertainty_Pb-210-uncertainty":4.0},"type":"Feature"},{"geometry":{"coordinates":[26.62807,67.36505],"type":"Point"},"properties":{"concentration_Be-7":1728.4,"from_timestamp":"2025-08-14T08:39:00Z","id":"103434","site":"Sodankylä","to_timestamp":"2025-08-21T08:06:00Z","uncertainty_Be-7-uncertainty":10.0},"type":"Feature"},{"geometry":{"coordinates":[25.05334,60.29049],"type":"Point"},"properties":{"concentration_Be-7":659.8,"concentration_Pb-210":97.0,"from_timestamp":"2025-08-19T08:01:00Z","id":"107554","site":"Vantaa","to_timestamp":"2025-08-20T07:57:00Z","uncertainty_Be-7-uncertainty":8.0,"uncertainty_Pb-210-uncertainty":8.0},"type":"Feature"},{"geometry":{"coordinates":[25.05334,60.29049],"type":"Point"},"properties":{"concentration_Be-7":934.9,"concentration_Pb-210":107.5,"from_timestamp":"2025-08-20T08:01:00Z","id":"107554","site":"Vantaa","to_timestamp":"2025-08-21T07:57:00Z","uncertainty_Be-7-uncertainty":8.0,"uncertainty_Pb-210-uncertainty":8.0},"type":"Feature"},{"geometry":{"coordinates":[25.05334,60.29049],"type":"Point"},"properties":{"concentration_Be-7":945.5,"concentration_Pb-210":140.7,"from_timestamp":"2025-08-21T08:01:00Z","id":"107554","site":"Vantaa","to_timestamp":"2025-08-22T07:57:00Z","uncertainty_Be-7-uncertainty":8.0,"uncertainty_Pb-210-uncertainty":8.0},"type":"Feature"},{"geometry":{"coordinates":[25.05334,60.29049],"type":"Point"},"properties":{"concentration_Be-7":1161.5,"concentration_Pb-210":293.2,"from_timestamp":"2025-08-22T08:01:00Z","id":"107554","site":"Vantaa","to_timestamp":"2025-08-23T07:57:00Z","uncertainty_Be-7-uncertainty":8.0,"uncertainty_Pb-210-uncertainty":7.0},"type":"Feature"},{"geometry":{"coordinates":[25.05334,60.29049],"type":"Point"},"properties":{"concentration_Be-7":1632.2,"concentration_Pb-210":265.5,"from_timestamp":"2025-08-23T08:01:00Z","id":"107554","site":"Vantaa","to_timestamp":"2025-08-24T07:57:00Z","uncertainty_Be-7-uncertainty":8.0,"uncertainty_Pb-210-uncertainty":7.0},"type":"Feature"},{"geometry":{"coordinates":[25.05334,60.29049],"type":"Point"},"properties":{"concentration_Be-7":753.8,"concentration_Pb-210":111.1,"from_timestamp":"2025-08-24T08:01:00Z","id":"107554","site":"Vantaa","to_timestamp":"2025-08-25T07:57:00Z","uncertainty_Be-7-uncertainty":8.0,"uncertainty_Pb-210-uncertainty":8.0},"type":"Feature"},{"geometry":{"coordinates":[25.05334,60.29049],"type":"Point"},"properties":{"concentration_Be-7":1503.0,"concentration_Pb-210":245.0,"from_timestamp":"2025-08-25T08:01:00Z","id":"107554","site":"Vantaa","to_timestamp":"2025-08-26T07:57:00Z","uncertainty_Be-7-uncertainty":8.0,"uncertainty_Pb-210-uncertainty":7.0},"type":"Feature"}],"name":"stuk_open_data_air_radionuclides","type":"FeatureCollection"}