{"crs":{"properties":{"name":"urn:ogc:def:crs:OGC:1.3:CRS84"},"type":"name"},"features":[{"geometry":{"coordinates":[26.91808,60.48318],"type":"Point"},"properties":{"concentration_Be-7":1571.2,"concentration_Cs-137":0.8,"concentration_Na-22":0.1,"concentration_Pb-210":423.3,"from_timestamp":"2025-03-10T08:49:00Z","id":"103429","site":"Kotka","to_timestamp":"2025-03-24T10:10:00Z","uncertainty_Be-7-uncertainty":7.0,"uncertainty_Cs-137-uncertainty":8.0,"uncertainty_Na-22-uncertainty":17.0,"uncertainty_Pb-210-uncertainty":24.0},"type":"Feature"},{"geometry":{"coordinates":[28.82663,61.13229],"type":"Point"},"properties":{"concentration_Be-7":1747.5,"concentration_Cs-137":1.1,"concentration_Pb-210":158.0,"from_timestamp":"2025-03-17T13:04:00Z","id":"103430","site":"Imatra","to_timestamp":"2025-03-24T07:00:00Z","uncertainty_Be-7-uncertainty":6.0,"uncertainty_Cs-137-uncertainty":12.0,"uncertainty_Pb-210-uncertainty":19.0},"type":"Feature"},{"geometry":{"coordinates":[27.63414,62.89195],"type":"Point"},"properties":{"concentration_Be-7":2051.5,"concentration_Pb-210":147.9,"from_timestamp":"2025-03-17T08:14:00Z","id":"103432","site":"Kuopio","to_timestamp":"2025-03-24T08:15:00Z","uncertainty_Be-7-uncertainty":3.0,"uncertainty_Pb-210-uncertainty":18.0},"type":"Feature"},{"geometry":{"coordinates":[25.67774,66.51285],"type":"Point"},"properties":{"concentration_Be-7":1637.5,"concentration_Cs-137":0.1,"concentration_Pb-210":147.9,"from_timestamp":"2025-03-17T08:54:00Z","id":"103433","site":"Rovaniemi","to_timestamp":"2025-03-24T08:58:00Z","uncertainty_Be-7-uncertainty":5.0,"uncertainty_Cs-137-uncertainty":23.0,"uncertainty_Pb-210-uncertainty":4.0},"type":"Feature"},{"geometry":{"coordinates":[25.05334,60.29049],"type":"Point"},"properties":{"concentration_Be-7":3851.0,"concentration_Pb-210":379.5,"from_timestamp":"2025-03-23T08:01:00Z","id":"107554","site":"Vantaa","to_timestamp":"2025-03-24T10:52:00Z","uncertainty_Be-7-uncertainty":8.0,"uncertainty_Pb-210-uncertainty":7.0},"type":"Feature"},{"geometry":{"coordinates":[25.05334,60.29049],"type":"Point"},"properties":{"concentration_Be-7":2817.7,"concentration_Pb-210":581.3,"from_timestamp":"2025-03-24T11:00:00Z","id":"107554","site":"Vantaa","to_timestamp":"2025-03-25T07:53:00Z","uncertainty_Be-7-uncertainty":8.0,"uncertainty_Pb-210-uncertainty":6.0},"type":"Feature"},{"geometry":{"coordinates":[25.05334,60.29049],"type":"Point"},"properties":{"concentration_Be-7":2753.6,"concentration_Pb-210":695.0,"from_timestamp":"2025-03-25T08:01:00Z","id":"107554","site":"Vantaa","to_timestamp":"2025-03-26T07:52:00Z","uncertainty_Be-7-uncertainty":8.0,"uncertainty_Pb-210-uncertainty":6.0},"type":"Feature"},{"geometry":{"coordinates":[25.05334,60.29049],"type":"Point"},"properties":{"concentration_Be-7":1981.3,"concentration_Pb-210":172.4,"from_timestamp":"2025-03-27T08:01:00Z","id":"107554","site":"Vantaa","to_timestamp":"2025-03-28T07:52:00Z","uncertainty_Be-7-uncertainty":8.0,"uncertainty_Pb-210-uncertainty":7.0},"type":"Feature"},{"geometry":{"coordinates":[25.05334,60.29049],"type":"Point"},"properties":{"concentration_Be-7":1230.1,"concentration_Pb-210":152.4,"from_timestamp":"2025-03-26T08:01:00Z","id":"107554","site":"Vantaa","to_timestamp":"2025-03-27T07:52:00Z","uncertainty_Be-7-uncertainty":8.0,"uncertainty_Pb-210-uncertainty":8.0},"type":"Feature"},{"geometry":{"coordinates":[25.05334,60.29049],"type":"Point"},"properties":{"concentration_Be-7":2073.7,"concentration_Pb-210":321.0,"from_timestamp":"2025-03-28T08:01:00Z","id":"107554","site":"Vantaa","to_timestamp":"2025-03-29T07:52:00Z","uncertainty_Be-7-uncertainty":8.0,"uncertainty_Pb-210-uncertainty":7.0},"type":"Feature"},{"geometry":{"coordinates":[25.05334,60.29049],"type":"Point"},"properties":{"concentration_Be-7":2269.9,"concentration_Pb-210":489.6,"from_timestamp":"2025-03-29T08:01:00Z","id":"107554","site":"Vantaa","to_timestamp":"2025-03-30T07:52:00Z","uncertainty_Be-7-uncertainty":8.0,"uncertainty_Pb-210-uncertainty":6.0},"type":"Feature"}],"name":"stuk_open_data_air_radionuclides","type":"FeatureCollection"}