{"crs":{"properties":{"name":"urn:ogc:def:crs:OGC:1.3:CRS84"},"type":"name"},"features":[{"geometry":{"coordinates":[26.91808,60.48318],"type":"Point"},"properties":{"concentration_Be-7":1112.6,"concentration_Cs-137":1.6,"concentration_Pb-210":658.3,"from_timestamp":"2025-02-10T11:30:00Z","id":"103429","site":"Kotka","to_timestamp":"2025-02-17T08:47:00Z","uncertainty_Be-7-uncertainty":7.0,"uncertainty_Cs-137-uncertainty":8.0,"uncertainty_Pb-210-uncertainty":25.0},"type":"Feature"},{"geometry":{"coordinates":[28.82663,61.13229],"type":"Point"},"properties":{"concentration_Be-7":889.9,"concentration_Cs-137":2.6,"concentration_Pb-210":228.7,"from_timestamp":"2025-02-13T08:00:00Z","id":"103430","site":"Imatra","to_timestamp":"2025-02-20T07:00:00Z","uncertainty_Be-7-uncertainty":6.0,"uncertainty_Cs-137-uncertainty":8.0,"uncertainty_Pb-210-uncertainty":20.0},"type":"Feature"},{"geometry":{"coordinates":[27.63414,62.89195],"type":"Point"},"properties":{"concentration_Be-7":1179.7,"concentration_Pb-210":304.7,"from_timestamp":"2025-02-10T10:17:00Z","id":"103432","site":"Kuopio","to_timestamp":"2025-02-17T09:34:00Z","uncertainty_Be-7-uncertainty":3.0,"uncertainty_Pb-210-uncertainty":9.0},"type":"Feature"},{"geometry":{"coordinates":[25.67774,66.51285],"type":"Point"},"properties":{"concentration_Be-7":1014.9,"concentration_Cs-137":0.2,"concentration_Na-24":4.5,"concentration_Pb-210":195.0,"from_timestamp":"2025-02-10T09:02:00Z","id":"103433","site":"Rovaniemi","to_timestamp":"2025-02-17T08:44:00Z","uncertainty_Be-7-uncertainty":5.0,"uncertainty_Cs-137-uncertainty":17.0,"uncertainty_Na-24-uncertainty":27.0,"uncertainty_Pb-210-uncertainty":4.0},"type":"Feature"},{"geometry":{"coordinates":[27.70835,64.08474],"type":"Point"},"properties":{"concentration_Be-7":772.2,"concentration_Cs-137":0.1,"concentration_Pb-210":372.9,"from_timestamp":"2025-02-10T10:41:00Z","id":"103435","site":"Kajaani","to_timestamp":"2025-02-17T13:26:00Z","uncertainty_Be-7-uncertainty":7.0,"uncertainty_Cs-137-uncertainty":17.0,"uncertainty_Pb-210-uncertainty":30.0},"type":"Feature"},{"geometry":{"coordinates":[25.05334,60.29049],"type":"Point"},"properties":{"concentration_Be-7":464.0,"concentration_Pb-210":249.0,"from_timestamp":"2025-02-17T08:01:00Z","id":"107554","site":"Vantaa","to_timestamp":"2025-02-18T07:54:00Z","uncertainty_Be-7-uncertainty":8.0,"uncertainty_Pb-210-uncertainty":7.0},"type":"Feature"},{"geometry":{"coordinates":[25.05334,60.29049],"type":"Point"},"properties":{"concentration_Be-7":918.6,"concentration_Pb-210":399.4,"from_timestamp":"2025-02-16T08:01:00Z","id":"107554","site":"Vantaa","to_timestamp":"2025-02-17T07:54:00Z","uncertainty_Be-7-uncertainty":8.0,"uncertainty_Pb-210-uncertainty":6.0},"type":"Feature"},{"geometry":{"coordinates":[25.05334,60.29049],"type":"Point"},"properties":{"concentration_Be-7":921.3,"concentration_Pb-210":136.3,"from_timestamp":"2025-02-18T08:01:00Z","id":"107554","site":"Vantaa","to_timestamp":"2025-02-19T07:54:00Z","uncertainty_Be-7-uncertainty":8.0,"uncertainty_Pb-210-uncertainty":7.0},"type":"Feature"},{"geometry":{"coordinates":[25.05334,60.29049],"type":"Point"},"properties":{"concentration_Be-7":1401.7,"concentration_Pb-210":260.8,"from_timestamp":"2025-02-19T08:01:00Z","id":"107554","site":"Vantaa","to_timestamp":"2025-02-20T07:54:00Z","uncertainty_Be-7-uncertainty":8.0,"uncertainty_Pb-210-uncertainty":7.0},"type":"Feature"},{"geometry":{"coordinates":[25.05334,60.29049],"type":"Point"},"properties":{"concentration_Be-7":1400.7,"concentration_Pb-210":226.5,"from_timestamp":"2025-02-20T08:01:00Z","id":"107554","site":"Vantaa","to_timestamp":"2025-02-21T07:54:00Z","uncertainty_Be-7-uncertainty":8.0,"uncertainty_Pb-210-uncertainty":7.0},"type":"Feature"},{"geometry":{"coordinates":[25.05334,60.29049],"type":"Point"},"properties":{"concentration_Be-7":1865.7,"concentration_Pb-210":367.8,"from_timestamp":"2025-02-21T08:01:00Z","id":"107554","site":"Vantaa","to_timestamp":"2025-02-22T07:54:00Z","uncertainty_Be-7-uncertainty":8.0,"uncertainty_Pb-210-uncertainty":7.0},"type":"Feature"},{"geometry":{"coordinates":[25.05334,60.29049],"type":"Point"},"properties":{"concentration_Be-7":1747.5,"concentration_Pb-210":549.1,"from_timestamp":"2025-02-22T08:01:00Z","id":"107554","site":"Vantaa","to_timestamp":"2025-02-23T07:54:00Z","uncertainty_Be-7-uncertainty":8.0,"uncertainty_Pb-210-uncertainty":6.0},"type":"Feature"},{"geometry":{"coordinates":[25.05334,60.29049],"type":"Point"},"properties":{"concentration_Be-7":2234.8,"concentration_Pb-210":767.8,"from_timestamp":"2025-02-23T08:01:00Z","id":"107554","site":"Vantaa","to_timestamp":"2025-02-24T07:54:00Z","uncertainty_Be-7-uncertainty":8.0,"uncertainty_Pb-210-uncertainty":6.0},"type":"Feature"}],"name":"stuk_open_data_air_radionuclides","type":"FeatureCollection"}