{"crs":{"properties":{"name":"urn:ogc:def:crs:OGC:1.3:CRS84"},"type":"name"},"features":[{"geometry":{"coordinates":[26.91808,60.48318],"type":"Point"},"properties":{"concentration_Be-7":2000.7,"concentration_Cs-137":0.6,"concentration_Na-22":0.2,"from_timestamp":"2025-03-24T10:15:00Z","id":"103429","site":"Kotka","to_timestamp":"2025-03-31T08:47:00Z","uncertainty_Be-7-uncertainty":7.0,"uncertainty_Cs-137-uncertainty":9.0,"uncertainty_Na-22-uncertainty":22.0},"type":"Feature"},{"geometry":{"coordinates":[27.63414,62.89195],"type":"Point"},"properties":{"concentration_Be-7":2170.8,"concentration_Pb-210":241.3,"from_timestamp":"2025-03-24T08:15:00Z","id":"103432","site":"Kuopio","to_timestamp":"2025-03-31T09:31:00Z","uncertainty_Be-7-uncertainty":3.0,"uncertainty_Pb-210-uncertainty":12.0},"type":"Feature"},{"geometry":{"coordinates":[25.67774,66.51285],"type":"Point"},"properties":{"concentration_Be-7":1614.4,"concentration_Pb-210":174.5,"from_timestamp":"2025-03-24T09:02:00Z","id":"103433","site":"Rovaniemi","to_timestamp":"2025-03-31T08:30:00Z","uncertainty_Be-7-uncertainty":5.0,"uncertainty_Pb-210-uncertainty":4.0},"type":"Feature"},{"geometry":{"coordinates":[25.67774,66.51285],"type":"Point"},"properties":{"concentration_Be-7":1379.1,"concentration_Pb-210":122.7,"from_timestamp":"2025-03-31T08:33:00Z","id":"103433","site":"Rovaniemi","to_timestamp":"2025-04-07T08:44:00Z","uncertainty_Be-7-uncertainty":5.0,"uncertainty_Pb-210-uncertainty":4.0},"type":"Feature"},{"geometry":{"coordinates":[27.70835,64.08474],"type":"Point"},"properties":{"concentration_Be-7":1510.1,"concentration_Cs-137":0.2,"concentration_Na-22":0.3,"concentration_Pb-210":20.4,"from_timestamp":"2025-03-25T07:55:00Z","id":"103435","site":"Kajaani","to_timestamp":"2025-03-31T20:00:00Z","uncertainty_Be-7-uncertainty":5.0,"uncertainty_Cs-137-uncertainty":19.0,"uncertainty_Na-22-uncertainty":17.0,"uncertainty_Pb-210-uncertainty":18.0},"type":"Feature"},{"geometry":{"coordinates":[25.05334,60.29049],"type":"Point"},"properties":{"concentration_Be-7":1998.2,"concentration_Pb-210":795.9,"from_timestamp":"2025-03-31T08:01:00Z","id":"107554","site":"Vantaa","to_timestamp":"2025-04-01T07:53:00Z","uncertainty_Be-7-uncertainty":8.0,"uncertainty_Pb-210-uncertainty":6.0},"type":"Feature"},{"geometry":{"coordinates":[25.05334,60.29049],"type":"Point"},"properties":{"concentration_Be-7":2735.7,"concentration_Pb-210":617.1,"from_timestamp":"2025-03-30T08:01:00Z","id":"107554","site":"Vantaa","to_timestamp":"2025-03-31T07:52:00Z","uncertainty_Be-7-uncertainty":8.0,"uncertainty_Pb-210-uncertainty":6.0},"type":"Feature"},{"geometry":{"coordinates":[25.05334,60.29049],"type":"Point"},"properties":{"concentration_Be-7":1653.8,"concentration_Pb-210":200.8,"from_timestamp":"2025-04-01T08:01:00Z","id":"107554","site":"Vantaa","to_timestamp":"2025-04-02T07:53:00Z","uncertainty_Be-7-uncertainty":8.0,"uncertainty_Pb-210-uncertainty":7.0},"type":"Feature"},{"geometry":{"coordinates":[25.05334,60.29049],"type":"Point"},"properties":{"concentration_Be-7":1689.1,"concentration_Pb-210":196.9,"from_timestamp":"2025-04-02T08:01:00Z","id":"107554","site":"Vantaa","to_timestamp":"2025-04-03T07:53:00Z","uncertainty_Be-7-uncertainty":8.0,"uncertainty_Pb-210-uncertainty":7.0},"type":"Feature"},{"geometry":{"coordinates":[25.05334,60.29049],"type":"Point"},"properties":{"concentration_Be-7":2395.1,"concentration_Pb-210":238.0,"from_timestamp":"2025-04-03T08:01:00Z","id":"107554","site":"Vantaa","to_timestamp":"2025-04-04T07:53:00Z","uncertainty_Be-7-uncertainty":8.0,"uncertainty_Pb-210-uncertainty":7.0},"type":"Feature"},{"geometry":{"coordinates":[25.05334,60.29049],"type":"Point"},"properties":{"concentration_Be-7":1034.8,"concentration_Pb-210":99.5,"from_timestamp":"2025-04-04T08:01:00Z","id":"107554","site":"Vantaa","to_timestamp":"2025-04-05T07:53:00Z","uncertainty_Be-7-uncertainty":8.0,"uncertainty_Pb-210-uncertainty":8.0},"type":"Feature"},{"geometry":{"coordinates":[25.05334,60.29049],"type":"Point"},"properties":{"concentration_Be-7":2602.7,"concentration_Pb-210":235.4,"from_timestamp":"2025-04-05T08:01:00Z","id":"107554","site":"Vantaa","to_timestamp":"2025-04-06T07:53:00Z","uncertainty_Be-7-uncertainty":8.0,"uncertainty_Pb-210-uncertainty":7.0},"type":"Feature"}],"name":"stuk_open_data_air_radionuclides","type":"FeatureCollection"}