{"crs":{"properties":{"name":"urn:ogc:def:crs:OGC:1.3:CRS84"},"type":"name"},"features":[{"geometry":{"coordinates":[26.91808,60.48318],"type":"Point"},"properties":{"concentration_Be-7":2849.4,"concentration_Cs-137":0.8,"concentration_Na-22":0.6,"concentration_Pb-210":212.0,"from_timestamp":"2025-05-12T08:54:00Z","id":"103429","site":"Kotka","to_timestamp":"2025-05-19T08:15:00Z","uncertainty_Be-7-uncertainty":6.0,"uncertainty_Cs-137-uncertainty":7.0,"uncertainty_Na-22-uncertainty":12.0,"uncertainty_Pb-210-uncertainty":8.0},"type":"Feature"},{"geometry":{"coordinates":[27.63414,62.89195],"type":"Point"},"properties":{"concentration_Be-7":4141.4,"concentration_Pb-210":352.6,"from_timestamp":"2025-05-12T09:04:00Z","id":"103432","site":"Kuopio","to_timestamp":"2025-05-19T09:18:00Z","uncertainty_Be-7-uncertainty":3.0,"uncertainty_Pb-210-uncertainty":10.0},"type":"Feature"},{"geometry":{"coordinates":[25.67774,66.51285],"type":"Point"},"properties":{"concentration_Be-7":3019.5,"concentration_Na-22":0.6,"concentration_Pb-210":194.3,"from_timestamp":"2025-05-12T09:22:00Z","id":"103433","site":"Rovaniemi","to_timestamp":"2025-05-19T08:51:00Z","uncertainty_Be-7-uncertainty":5.0,"uncertainty_Na-22-uncertainty":9.0,"uncertainty_Pb-210-uncertainty":4.0},"type":"Feature"},{"geometry":{"coordinates":[27.70835,64.08474],"type":"Point"},"properties":{"concentration_Be-7":3574.6,"concentration_Cs-137":0.2,"concentration_Na-22":0.5,"from_timestamp":"2025-05-12T18:27:00Z","id":"103435","site":"Kajaani","to_timestamp":"2025-05-19T11:25:00Z","uncertainty_Be-7-uncertainty":7.0,"uncertainty_Cs-137-uncertainty":17.0,"uncertainty_Na-22-uncertainty":12.0},"type":"Feature"},{"geometry":{"coordinates":[25.05334,60.29049],"type":"Point"},"properties":{"concentration_Be-7":4677.5,"concentration_Pb-210":357.2,"from_timestamp":"2025-05-18T08:01:00Z","id":"107554","site":"Vantaa","to_timestamp":"2025-05-19T07:51:00Z","uncertainty_Be-7-uncertainty":8.0,"uncertainty_Pb-210-uncertainty":7.0},"type":"Feature"},{"geometry":{"coordinates":[25.05334,60.29049],"type":"Point"},"properties":{"concentration_Be-7":3362.1,"concentration_Pb-210":219.5,"from_timestamp":"2025-05-23T09:11:00Z","id":"107554","site":"Vantaa","to_timestamp":"2025-05-24T07:51:00Z","uncertainty_Be-7-uncertainty":8.0,"uncertainty_Pb-210-uncertainty":7.0},"type":"Feature"},{"geometry":{"coordinates":[25.05334,60.29049],"type":"Point"},"properties":{"concentration_Be-7":4327.2,"concentration_Cs-137":5.8,"concentration_Pb-210":350.2,"from_timestamp":"2025-05-21T08:01:00Z","id":"107554","site":"Vantaa","to_timestamp":"2025-05-22T07:51:00Z","uncertainty_Be-7-uncertainty":8.0,"uncertainty_Cs-137-uncertainty":13.0,"uncertainty_Pb-210-uncertainty":7.0},"type":"Feature"},{"geometry":{"coordinates":[25.05334,60.29049],"type":"Point"},"properties":{"concentration_Be-7":2755.2,"concentration_Pb-210":218.4,"from_timestamp":"2025-05-24T08:01:00Z","id":"107554","site":"Vantaa","to_timestamp":"2025-05-25T07:51:00Z","uncertainty_Be-7-uncertainty":8.0,"uncertainty_Pb-210-uncertainty":7.0},"type":"Feature"},{"geometry":{"coordinates":[25.05334,60.29049],"type":"Point"},"properties":{"concentration_Be-7":3772.8,"concentration_Pb-210":355.3,"from_timestamp":"2025-05-22T08:01:00Z","id":"107554","site":"Vantaa","to_timestamp":"2025-05-23T09:01:00Z","uncertainty_Be-7-uncertainty":8.0,"uncertainty_Pb-210-uncertainty":7.0},"type":"Feature"}],"name":"stuk_open_data_air_radionuclides","type":"FeatureCollection"}