{"crs":{"properties":{"name":"urn:ogc:def:crs:OGC:1.3:CRS84"},"type":"name"},"features":[{"geometry":{"coordinates":[26.91808,60.48318],"type":"Point"},"properties":{"concentration_Be-7":1945.9,"concentration_Cs-137":0.6,"concentration_Na-22":0.2,"concentration_Pb-210":169.2,"from_timestamp":"2025-04-07T08:16:00Z","id":"103429","site":"Kotka","to_timestamp":"2025-04-14T09:04:00Z","uncertainty_Be-7-uncertainty":5.0,"uncertainty_Cs-137-uncertainty":7.0,"uncertainty_Na-22-uncertainty":18.0,"uncertainty_Pb-210-uncertainty":5.0},"type":"Feature"},{"geometry":{"coordinates":[27.63414,62.89195],"type":"Point"},"properties":{"concentration_Be-7":2369.5,"concentration_Pb-210":195.2,"from_timestamp":"2025-04-07T10:06:00Z","id":"103432","site":"Kuopio","to_timestamp":"2025-04-14T08:34:00Z","uncertainty_Be-7-uncertainty":3.0,"uncertainty_Pb-210-uncertainty":14.0},"type":"Feature"},{"geometry":{"coordinates":[25.67774,66.51285],"type":"Point"},"properties":{"concentration_Be-7":1827.9,"concentration_Cs-137":0.2,"concentration_Pb-210":172.4,"from_timestamp":"2025-04-07T08:47:00Z","id":"103433","site":"Rovaniemi","to_timestamp":"2025-04-14T08:58:00Z","uncertainty_Be-7-uncertainty":5.0,"uncertainty_Cs-137-uncertainty":24.0,"uncertainty_Pb-210-uncertainty":4.0},"type":"Feature"},{"geometry":{"coordinates":[27.70835,64.08474],"type":"Point"},"properties":{"concentration_Be-7":2082.5,"concentration_Cs-137":0.2,"concentration_Na-22":0.2,"from_timestamp":"2025-04-07T19:35:00Z","id":"103435","site":"Kajaani","to_timestamp":"2025-04-14T10:54:00Z","uncertainty_Be-7-uncertainty":7.0,"uncertainty_Cs-137-uncertainty":14.0,"uncertainty_Na-22-uncertainty":18.0},"type":"Feature"},{"geometry":{"coordinates":[25.05334,60.29049],"type":"Point"},"properties":{"concentration_Be-7":2474.6,"concentration_Pb-210":218.3,"from_timestamp":"2025-04-13T08:01:00Z","id":"107554","site":"Vantaa","to_timestamp":"2025-04-14T07:53:00Z","uncertainty_Be-7-uncertainty":8.0,"uncertainty_Pb-210-uncertainty":7.0},"type":"Feature"},{"geometry":{"coordinates":[25.05334,60.29049],"type":"Point"},"properties":{"concentration_Be-7":2503.8,"concentration_Pb-210":586.4,"from_timestamp":"2025-04-14T08:01:00Z","id":"107554","site":"Vantaa","to_timestamp":"2025-04-15T07:53:00Z","uncertainty_Be-7-uncertainty":8.0,"uncertainty_Pb-210-uncertainty":6.0},"type":"Feature"},{"geometry":{"coordinates":[25.05334,60.29049],"type":"Point"},"properties":{"concentration_Be-7":611.3,"concentration_Pb-210":236.4,"from_timestamp":"2025-04-17T08:01:00Z","id":"107554","site":"Vantaa","to_timestamp":"2025-04-18T07:52:00Z","uncertainty_Be-7-uncertainty":8.0,"uncertainty_Pb-210-uncertainty":7.0},"type":"Feature"},{"geometry":{"coordinates":[25.05334,60.29049],"type":"Point"},"properties":{"concentration_Be-7":2941.6,"concentration_Pb-210":425.1,"from_timestamp":"2025-04-16T08:01:00Z","id":"107554","site":"Vantaa","to_timestamp":"2025-04-17T07:52:00Z","uncertainty_Be-7-uncertainty":8.0,"uncertainty_Pb-210-uncertainty":6.0},"type":"Feature"},{"geometry":{"coordinates":[25.05334,60.29049],"type":"Point"},"properties":{"concentration_Be-7":1319.4,"concentration_Pb-210":194.8,"from_timestamp":"2025-04-15T08:01:00Z","id":"107554","site":"Vantaa","to_timestamp":"2025-04-16T07:52:00Z","uncertainty_Be-7-uncertainty":8.0,"uncertainty_Pb-210-uncertainty":7.0},"type":"Feature"},{"geometry":{"coordinates":[25.05334,60.29049],"type":"Point"},"properties":{"concentration_Be-7":994.3,"concentration_Pb-210":586.7,"from_timestamp":"2025-04-18T08:01:00Z","id":"107554","site":"Vantaa","to_timestamp":"2025-04-19T07:52:00Z","uncertainty_Be-7-uncertainty":8.0,"uncertainty_Pb-210-uncertainty":6.0},"type":"Feature"},{"geometry":{"coordinates":[25.05334,60.29049],"type":"Point"},"properties":{"concentration_Be-7":46.8,"concentration_Pb-210":56.7,"from_timestamp":"2025-04-20T08:01:00Z","id":"107554","site":"Vantaa","to_timestamp":"2025-04-21T07:52:00Z","uncertainty_Be-7-uncertainty":12.0,"uncertainty_Pb-210-uncertainty":10.0},"type":"Feature"},{"geometry":{"coordinates":[25.05334,60.29049],"type":"Point"},"properties":{"concentration_Be-7":905.8,"concentration_Pb-210":370.8,"from_timestamp":"2025-04-19T08:01:00Z","id":"107554","site":"Vantaa","to_timestamp":"2025-04-20T07:52:00Z","uncertainty_Be-7-uncertainty":8.0,"uncertainty_Pb-210-uncertainty":7.0},"type":"Feature"}],"name":"stuk_open_data_air_radionuclides","type":"FeatureCollection"}