{"crs":{"properties":{"name":"urn:ogc:def:crs:OGC:1.3:CRS84"},"type":"name"},"features":[{"geometry":{"coordinates":[26.91808,60.48318],"type":"Point"},"properties":{"concentration_Be-7":1262.8,"concentration_Cs-137":0.5,"from_timestamp":"2025-01-13T08:47:00Z","id":"103429","site":"Kotka","to_timestamp":"2025-01-20T08:56:00Z","uncertainty_Be-7-uncertainty":7.0,"uncertainty_Cs-137-uncertainty":11.0},"type":"Feature"},{"geometry":{"coordinates":[28.82663,61.13229],"type":"Point"},"properties":{"concentration_Be-7":1404.6,"concentration_Cs-137":0.8,"concentration_Pb-210":155.7,"from_timestamp":"2025-01-13T07:30:00Z","id":"103430","site":"Imatra","to_timestamp":"2025-01-23T07:30:00Z","uncertainty_Be-7-uncertainty":6.0,"uncertainty_Cs-137-uncertainty":11.0,"uncertainty_Pb-210-uncertainty":20.0},"type":"Feature"},{"geometry":{"coordinates":[27.63414,62.89195],"type":"Point"},"properties":{"concentration_Be-7":1381.7,"concentration_Pb-210":116.3,"from_timestamp":"2025-01-13T08:01:00Z","id":"103432","site":"Kuopio","to_timestamp":"2025-01-20T07:39:00Z","uncertainty_Be-7-uncertainty":3.0,"uncertainty_Pb-210-uncertainty":19.0},"type":"Feature"},{"geometry":{"coordinates":[25.67774,66.51285],"type":"Point"},"properties":{"concentration_Be-7":994.5,"concentration_Pb-210":64.5,"from_timestamp":"2025-01-13T09:10:00Z","id":"103433","site":"Rovaniemi","to_timestamp":"2025-01-20T09:02:00Z","uncertainty_Be-7-uncertainty":5.0,"uncertainty_Pb-210-uncertainty":4.0},"type":"Feature"},{"geometry":{"coordinates":[27.70835,64.08474],"type":"Point"},"properties":{"concentration_Be-7":985.4,"concentration_Cs-137":0.1,"from_timestamp":"2025-01-13T12:51:00Z","id":"103435","site":"Kajaani","to_timestamp":"2025-01-20T17:18:00Z","uncertainty_Be-7-uncertainty":7.0,"uncertainty_Cs-137-uncertainty":18.0},"type":"Feature"},{"geometry":{"coordinates":[25.05334,60.29049],"type":"Point"},"properties":{"concentration_Be-7":1460.9,"concentration_Pb-210":130.2,"from_timestamp":"2025-01-19T08:01:00Z","id":"107554","site":"Vantaa","to_timestamp":"2025-01-20T07:56:00Z","uncertainty_Be-7-uncertainty":8.0,"uncertainty_Pb-210-uncertainty":7.0},"type":"Feature"},{"geometry":{"coordinates":[25.05334,60.29049],"type":"Point"},"properties":{"concentration_Be-7":2782.5,"concentration_Pb-210":178.8,"from_timestamp":"2025-01-21T08:01:00Z","id":"107554","site":"Vantaa","to_timestamp":"2025-01-22T07:56:00Z","uncertainty_Be-7-uncertainty":8.0,"uncertainty_Pb-210-uncertainty":7.0},"type":"Feature"},{"geometry":{"coordinates":[25.05334,60.29049],"type":"Point"},"properties":{"concentration_Be-7":1222.8,"concentration_Pb-210":126.7,"from_timestamp":"2025-01-20T08:01:00Z","id":"107554","site":"Vantaa","to_timestamp":"2025-01-21T07:56:00Z","uncertainty_Be-7-uncertainty":8.0,"uncertainty_Pb-210-uncertainty":7.0},"type":"Feature"},{"geometry":{"coordinates":[25.05334,60.29049],"type":"Point"},"properties":{"concentration_Be-7":1135.8,"concentration_Pb-210":467.6,"from_timestamp":"2025-01-23T08:01:00Z","id":"107554","site":"Vantaa","to_timestamp":"2025-01-24T07:55:00Z","uncertainty_Be-7-uncertainty":8.0,"uncertainty_Pb-210-uncertainty":6.0},"type":"Feature"},{"geometry":{"coordinates":[25.05334,60.29049],"type":"Point"},"properties":{"concentration_Be-7":661.9,"concentration_Pb-210":239.6,"from_timestamp":"2025-01-22T08:01:00Z","id":"107554","site":"Vantaa","to_timestamp":"2025-01-23T07:55:00Z","uncertainty_Be-7-uncertainty":8.0,"uncertainty_Pb-210-uncertainty":7.0},"type":"Feature"},{"geometry":{"coordinates":[25.05334,60.29049],"type":"Point"},"properties":{"concentration_Be-7":844.8,"concentration_Pb-210":335.0,"from_timestamp":"2025-01-24T08:01:00Z","id":"107554","site":"Vantaa","to_timestamp":"2025-01-25T07:55:00Z","uncertainty_Be-7-uncertainty":8.0,"uncertainty_Pb-210-uncertainty":7.0},"type":"Feature"},{"geometry":{"coordinates":[25.05334,60.29049],"type":"Point"},"properties":{"concentration_Be-7":1830.8,"concentration_Pb-210":97.1,"from_timestamp":"2025-01-26T08:01:00Z","id":"107554","site":"Vantaa","to_timestamp":"2025-01-27T07:55:00Z","uncertainty_Be-7-uncertainty":8.0,"uncertainty_Pb-210-uncertainty":8.0},"type":"Feature"},{"geometry":{"coordinates":[25.05334,60.29049],"type":"Point"},"properties":{"concentration_Be-7":2155.0,"concentration_Pb-210":249.3,"from_timestamp":"2025-01-25T08:01:00Z","id":"107554","site":"Vantaa","to_timestamp":"2025-01-26T07:55:00Z","uncertainty_Be-7-uncertainty":8.0,"uncertainty_Pb-210-uncertainty":7.0},"type":"Feature"}],"name":"stuk_open_data_air_radionuclides","type":"FeatureCollection"}