{"crs":{"properties":{"name":"urn:ogc:def:crs:OGC:1.3:CRS84"},"type":"name"},"features":[{"geometry":{"coordinates":[26.91808,60.48318],"type":"Point"},"properties":{"concentration_Be-7":2113.2,"concentration_Cs-137":0.8,"concentration_Na-22":0.3,"concentration_Pb-210":210.9,"from_timestamp":"2025-06-16T09:34:00Z","id":"103429","site":"Kotka","to_timestamp":"2025-06-23T08:48:00Z","uncertainty_Be-7-uncertainty":5.0,"uncertainty_Cs-137-uncertainty":7.0,"uncertainty_Na-22-uncertainty":16.0,"uncertainty_Pb-210-uncertainty":5.0},"type":"Feature"},{"geometry":{"coordinates":[28.82663,61.13229],"type":"Point"},"properties":{"concentration_Be-7":2831.9,"concentration_Cs-137":0.9,"from_timestamp":"2025-06-19T11:20:00Z","id":"103430","site":"Imatra","to_timestamp":"2025-06-26T07:30:00Z","uncertainty_Be-7-uncertainty":10.0,"uncertainty_Cs-137-uncertainty":19.0},"type":"Feature"},{"geometry":{"coordinates":[27.63414,62.89195],"type":"Point"},"properties":{"concentration_Be-7":2698.9,"concentration_Cs-137":1.0,"from_timestamp":"2025-06-16T06:44:00Z","id":"103432","site":"Kuopio","to_timestamp":"2025-06-23T09:28:00Z","uncertainty_Be-7-uncertainty":3.0,"uncertainty_Cs-137-uncertainty":22.0},"type":"Feature"},{"geometry":{"coordinates":[25.67774,66.51285],"type":"Point"},"properties":{"concentration_Be-7":1756.8,"concentration_Cs-137":0.2,"concentration_Na-22":0.3,"concentration_Pb-210":123.0,"from_timestamp":"2025-06-16T09:24:00Z","id":"103433","site":"Rovaniemi","to_timestamp":"2025-06-23T12:26:00Z","uncertainty_Be-7-uncertainty":5.0,"uncertainty_Cs-137-uncertainty":12.0,"uncertainty_Na-22-uncertainty":13.0,"uncertainty_Pb-210-uncertainty":5.0},"type":"Feature"},{"geometry":{"coordinates":[27.70835,64.08474],"type":"Point"},"properties":{"concentration_Be-7":1988.8,"concentration_Cs-137":0.4,"concentration_Na-22":0.3,"concentration_Pb-210":124.9,"from_timestamp":"2025-06-16T19:08:00Z","id":"103435","site":"Kajaani","to_timestamp":"2025-06-23T22:40:00Z","uncertainty_Be-7-uncertainty":2.0,"uncertainty_Cs-137-uncertainty":10.0,"uncertainty_Na-22-uncertainty":16.0,"uncertainty_Pb-210-uncertainty":4.0},"type":"Feature"},{"geometry":{"coordinates":[25.05334,60.29049],"type":"Point"},"properties":{"concentration_Be-7":2321.1,"concentration_Pb-210":224.5,"from_timestamp":"2025-06-22T08:01:00Z","id":"107554","site":"Vantaa","to_timestamp":"2025-06-23T08:00:00Z","uncertainty_Be-7-uncertainty":8.0,"uncertainty_Pb-210-uncertainty":7.0},"type":"Feature"},{"geometry":{"coordinates":[25.05334,60.29049],"type":"Point"},"properties":{"concentration_Be-7":595.4,"concentration_Pb-210":74.1,"from_timestamp":"2025-06-24T08:01:00Z","id":"107554","site":"Vantaa","to_timestamp":"2025-06-25T08:00:00Z","uncertainty_Be-7-uncertainty":8.0,"uncertainty_Pb-210-uncertainty":9.0},"type":"Feature"},{"geometry":{"coordinates":[25.05334,60.29049],"type":"Point"},"properties":{"concentration_Be-7":2411.7,"concentration_Pb-210":190.6,"from_timestamp":"2025-06-23T08:01:00Z","id":"107554","site":"Vantaa","to_timestamp":"2025-06-24T08:00:00Z","uncertainty_Be-7-uncertainty":8.0,"uncertainty_Pb-210-uncertainty":7.0},"type":"Feature"},{"geometry":{"coordinates":[25.05334,60.29049],"type":"Point"},"properties":{"concentration_Be-7":380.7,"concentration_Pb-210":55.3,"from_timestamp":"2025-06-25T08:01:00Z","id":"107554","site":"Vantaa","to_timestamp":"2025-06-26T08:00:00Z","uncertainty_Be-7-uncertainty":8.0,"uncertainty_Pb-210-uncertainty":10.0},"type":"Feature"},{"geometry":{"coordinates":[25.05334,60.29049],"type":"Point"},"properties":{"concentration_Be-7":536.0,"concentration_Pb-210":107.5,"from_timestamp":"2025-06-26T08:01:00Z","id":"107554","site":"Vantaa","to_timestamp":"2025-06-27T08:00:00Z","uncertainty_Be-7-uncertainty":8.0,"uncertainty_Pb-210-uncertainty":8.0},"type":"Feature"},{"geometry":{"coordinates":[25.05334,60.29049],"type":"Point"},"properties":{"concentration_Be-7":2150.6,"concentration_Pb-210":250.2,"from_timestamp":"2025-06-27T08:01:00Z","id":"107554","site":"Vantaa","to_timestamp":"2025-06-28T08:00:00Z","uncertainty_Be-7-uncertainty":8.0,"uncertainty_Pb-210-uncertainty":7.0},"type":"Feature"},{"geometry":{"coordinates":[25.05334,60.29049],"type":"Point"},"properties":{"concentration_Be-7":3030.6,"concentration_Pb-210":218.3,"from_timestamp":"2025-06-28T08:01:00Z","id":"107554","site":"Vantaa","to_timestamp":"2025-06-29T08:00:00Z","uncertainty_Be-7-uncertainty":8.0,"uncertainty_Pb-210-uncertainty":7.0},"type":"Feature"}],"name":"stuk_open_data_air_radionuclides","type":"FeatureCollection"}