{"crs":{"properties":{"name":"urn:ogc:def:crs:OGC:1.3:CRS84"},"type":"name"},"features":[{"geometry":{"coordinates":[28.82663,61.13229],"type":"Point"},"properties":{"concentration_Be-7":963.9,"concentration_Cs-137":0.9,"from_timestamp":"2026-02-09T08:00:00Z","id":"103430","site":"Imatra","to_timestamp":"2026-02-16T07:30:00Z","uncertainty_Be-7-uncertainty":5.0,"uncertainty_Cs-137-uncertainty":15.0},"type":"Feature"},{"geometry":{"coordinates":[27.57,68.64],"type":"Point"},"properties":{"concentration_Be-7":988.5,"concentration_Cs-137":0.4,"concentration_Pb-210":283.1,"from_timestamp":"2026-02-09T08:23:00Z","id":"103431","site":"Ivalo","to_timestamp":"2026-02-16T07:16:00Z","uncertainty_Be-7-uncertainty":2.0,"uncertainty_Cs-137-uncertainty":20.0,"uncertainty_Pb-210-uncertainty":4.0},"type":"Feature"},{"geometry":{"coordinates":[27.63414,62.89195],"type":"Point"},"properties":{"concentration_Be-7":1130.7,"concentration_Cs-137":1.0,"concentration_Pb-210":292.8,"from_timestamp":"2026-02-09T08:59:00Z","id":"103432","site":"Kuopio","to_timestamp":"2026-02-16T10:11:00Z","uncertainty_Be-7-uncertainty":3.0,"uncertainty_Cs-137-uncertainty":20.0,"uncertainty_Pb-210-uncertainty":9.0},"type":"Feature"},{"geometry":{"coordinates":[25.67774,66.51285],"type":"Point"},"properties":{"concentration_Be-7":907.5,"concentration_Cs-137":0.4,"concentration_Pb-210":491.1,"from_timestamp":"2026-02-09T09:07:00Z","id":"103433","site":"Rovaniemi","to_timestamp":"2026-02-16T08:27:00Z","uncertainty_Be-7-uncertainty":5.0,"uncertainty_Cs-137-uncertainty":9.0,"uncertainty_Pb-210-uncertainty":4.0},"type":"Feature"},{"geometry":{"coordinates":[26.62807,67.36505],"type":"Point"},"properties":{"concentration_Be-7":1117.0,"concentration_Pb-210":438.1,"from_timestamp":"2026-02-09T08:27:00Z","id":"103434","site":"Sodankylä","to_timestamp":"2026-02-16T08:37:00Z","uncertainty_Be-7-uncertainty":3.0,"uncertainty_Pb-210-uncertainty":3.0},"type":"Feature"},{"geometry":{"coordinates":[27.70835,64.08474],"type":"Point"},"properties":{"concentration_Be-7":878.9,"concentration_Cs-137":0.3,"concentration_Na-22":0.1,"concentration_Pb-210":495.3,"from_timestamp":"2026-02-09T17:20:00Z","id":"103435","site":"Kajaani","to_timestamp":"2026-02-16T10:41:00Z","uncertainty_Be-7-uncertainty":7.0,"uncertainty_Cs-137-uncertainty":10.0,"uncertainty_Na-22-uncertainty":25.0,"uncertainty_Pb-210-uncertainty":19.0},"type":"Feature"},{"geometry":{"coordinates":[25.05334,60.29049],"type":"Point"},"properties":{"concentration_Be-7":986.1,"concentration_Cs-137":1.5,"concentration_Pb-210":404.7,"from_timestamp":"2026-02-13T08:01:00Z","id":"107554","site":"Vantaa","to_timestamp":"2026-02-14T07:50:00Z","uncertainty_Be-7-uncertainty":8.0,"uncertainty_Cs-137-uncertainty":28.0,"uncertainty_Pb-210-uncertainty":6.0},"type":"Feature"},{"geometry":{"coordinates":[25.05334,60.29049],"type":"Point"},"properties":{"concentration_Be-7":1129.7,"concentration_Cs-137":3.6,"concentration_Pb-210":615.8,"from_timestamp":"2026-02-14T08:01:00Z","id":"107554","site":"Vantaa","to_timestamp":"2026-02-15T07:50:00Z","uncertainty_Be-7-uncertainty":8.0,"uncertainty_Cs-137-uncertainty":21.0,"uncertainty_Pb-210-uncertainty":6.0},"type":"Feature"},{"geometry":{"coordinates":[25.05334,60.29049],"type":"Point"},"properties":{"concentration_Be-7":1963.2,"concentration_Pb-210":408.8,"from_timestamp":"2026-02-16T12:22:00Z","id":"107554","site":"Vantaa","to_timestamp":"2026-02-17T07:50:00Z","uncertainty_Be-7-uncertainty":8.0,"uncertainty_Pb-210-uncertainty":6.0},"type":"Feature"},{"geometry":{"coordinates":[25.05334,60.29049],"type":"Point"},"properties":{"concentration_Be-7":2235.3,"concentration_Pb-210":363.7,"from_timestamp":"2026-02-17T08:01:00Z","id":"107554","site":"Vantaa","to_timestamp":"2026-02-18T07:50:00Z","uncertainty_Be-7-uncertainty":8.0,"uncertainty_Pb-210-uncertainty":6.0},"type":"Feature"}],"name":"stuk_open_data_air_radionuclides","type":"FeatureCollection"}