{"crs":{"properties":{"name":"urn:ogc:def:crs:OGC:1.3:CRS84"},"type":"name"},"features":[{"geometry":{"coordinates":[26.91808,60.48318],"type":"Point"},"properties":{"concentration_Be-7":1357.3,"concentration_Cs-137":1.8,"concentration_Pb-210":45.6,"from_timestamp":"2026-02-02T15:10:00Z","id":"103429","site":"Kotka","to_timestamp":"2026-02-09T16:30:00Z","uncertainty_Be-7-uncertainty":5.0,"uncertainty_Cs-137-uncertainty":5.0,"uncertainty_Pb-210-uncertainty":8.0},"type":"Feature"},{"geometry":{"coordinates":[28.82663,61.13229],"type":"Point"},"properties":{"concentration_Be-7":1273.3,"concentration_Cs-137":1.6,"concentration_Pb-210":412.0,"from_timestamp":"2026-02-02T08:00:00Z","id":"103430","site":"Imatra","to_timestamp":"2026-02-09T08:00:00Z","uncertainty_Be-7-uncertainty":3.0,"uncertainty_Cs-137-uncertainty":10.0,"uncertainty_Pb-210-uncertainty":3.0},"type":"Feature"},{"geometry":{"coordinates":[27.57,68.64],"type":"Point"},"properties":{"concentration_Be-7":1038.3,"from_timestamp":"2026-02-02T07:58:00Z","id":"103431","site":"Ivalo","to_timestamp":"2026-02-09T08:21:00Z","uncertainty_Be-7-uncertainty":5.0},"type":"Feature"},{"geometry":{"coordinates":[27.63414,62.89195],"type":"Point"},"properties":{"concentration_Be-7":1766.0,"concentration_Cs-137":1.2,"concentration_Pb-210":520.8,"from_timestamp":"2026-02-02T09:09:00Z","id":"103432","site":"Kuopio","to_timestamp":"2026-02-09T08:57:00Z","uncertainty_Be-7-uncertainty":3.0,"uncertainty_Cs-137-uncertainty":17.0,"uncertainty_Pb-210-uncertainty":7.0},"type":"Feature"},{"geometry":{"coordinates":[25.67774,66.51285],"type":"Point"},"properties":{"concentration_Be-7":1090.6,"concentration_Cs-137":0.3,"concentration_Pb-210":461.0,"from_timestamp":"2026-02-02T08:44:00Z","id":"103433","site":"Rovaniemi","to_timestamp":"2026-02-09T09:03:00Z","uncertainty_Be-7-uncertainty":5.0,"uncertainty_Cs-137-uncertainty":11.0,"uncertainty_Pb-210-uncertainty":4.0},"type":"Feature"},{"geometry":{"coordinates":[26.62807,67.36505],"type":"Point"},"properties":{"concentration_Be-7":822.4,"concentration_Pb-210":323.3,"from_timestamp":"2026-02-02T08:23:00Z","id":"103434","site":"Sodankylä","to_timestamp":"2026-02-09T08:26:00Z","uncertainty_Be-7-uncertainty":3.0,"uncertainty_Pb-210-uncertainty":3.0},"type":"Feature"},{"geometry":{"coordinates":[27.70835,64.08474],"type":"Point"},"properties":{"concentration_Be-7":1122.2,"concentration_Cs-137":0.4,"concentration_Pb-210":690.6,"from_timestamp":"2026-02-03T06:30:00Z","id":"103435","site":"Kajaani","to_timestamp":"2026-02-09T17:18:00Z","uncertainty_Be-7-uncertainty":7.0,"uncertainty_Cs-137-uncertainty":9.0,"uncertainty_Pb-210-uncertainty":18.0},"type":"Feature"},{"geometry":{"coordinates":[25.05334,60.29049],"type":"Point"},"properties":{"concentration_Be-7":1284.6,"concentration_Pb-210":373.7,"from_timestamp":"2026-02-07T08:01:00Z","id":"107554","site":"Vantaa","to_timestamp":"2026-02-09T09:37:00Z","uncertainty_Be-7-uncertainty":8.0,"uncertainty_Pb-210-uncertainty":6.0},"type":"Feature"},{"geometry":{"coordinates":[25.05334,60.29049],"type":"Point"},"properties":{"concentration_Be-7":2079.9,"concentration_Pb-210":373.6,"from_timestamp":"2026-02-09T09:47:00Z","id":"107554","site":"Vantaa","to_timestamp":"2026-02-10T07:50:00Z","uncertainty_Be-7-uncertainty":8.0,"uncertainty_Pb-210-uncertainty":6.0},"type":"Feature"},{"geometry":{"coordinates":[25.05334,60.29049],"type":"Point"},"properties":{"concentration_Be-7":2114.7,"concentration_Pb-210":373.1,"from_timestamp":"2026-02-10T08:01:00Z","id":"107554","site":"Vantaa","to_timestamp":"2026-02-11T07:50:00Z","uncertainty_Be-7-uncertainty":8.0,"uncertainty_Pb-210-uncertainty":6.0},"type":"Feature"},{"geometry":{"coordinates":[25.05334,60.29049],"type":"Point"},"properties":{"concentration_Be-7":2889.4,"concentration_Cs-137":1.6,"concentration_Pb-210":422.4,"from_timestamp":"2026-02-11T08:01:00Z","id":"107554","site":"Vantaa","to_timestamp":"2026-02-12T07:50:00Z","uncertainty_Be-7-uncertainty":8.0,"uncertainty_Cs-137-uncertainty":30.0,"uncertainty_Pb-210-uncertainty":6.0},"type":"Feature"},{"geometry":{"coordinates":[25.05334,60.29049],"type":"Point"},"properties":{"concentration_Be-7":876.0,"concentration_Pb-210":455.9,"from_timestamp":"2026-02-12T08:01:00Z","id":"107554","site":"Vantaa","to_timestamp":"2026-02-13T07:50:00Z","uncertainty_Be-7-uncertainty":8.0,"uncertainty_Pb-210-uncertainty":6.0},"type":"Feature"},{"geometry":{"coordinates":[25.05334,60.29049],"type":"Point"},"properties":{"concentration_Be-7":986.1,"concentration_Cs-137":1.5,"concentration_Pb-210":404.7,"from_timestamp":"2026-02-13T08:01:00Z","id":"107554","site":"Vantaa","to_timestamp":"2026-02-14T07:50:00Z","uncertainty_Be-7-uncertainty":8.0,"uncertainty_Cs-137-uncertainty":28.0,"uncertainty_Pb-210-uncertainty":6.0},"type":"Feature"},{"geometry":{"coordinates":[25.05334,60.29049],"type":"Point"},"properties":{"concentration_Be-7":1129.7,"concentration_Cs-137":3.6,"concentration_Pb-210":615.8,"from_timestamp":"2026-02-14T08:01:00Z","id":"107554","site":"Vantaa","to_timestamp":"2026-02-15T07:50:00Z","uncertainty_Be-7-uncertainty":8.0,"uncertainty_Cs-137-uncertainty":21.0,"uncertainty_Pb-210-uncertainty":6.0},"type":"Feature"}],"name":"stuk_open_data_air_radionuclides","type":"FeatureCollection"}