[{"id":"103429","site":"Kotka","coordinates":[26.91808,60.48318]},{"id":"103430","site":"Imatra","coordinates":[28.82663,61.13229]},{"id":"103431","site":"Ivalo","coordinates":[27.57,68.64]},{"id":"103432","site":"Kuopio","coordinates":[27.63414,62.89195]},{"id":"103433","site":"Rovaniemi","coordinates":[25.67774,66.51285]},{"id":"103435","site":"Kajaani","coordinates":[27.70835,64.08474]},{"id":"107554","site":"Vantaa","coordinates":[25.05334,60.29049]},{"id":"103434","site":"Sodankyl\u00e4","coordinates":[26.62807,67.36505]}]